[2025-07-07 06:13:13.785] ident,millis,flightTime,flightMode,loggerUsage,accelerationX_mps2,accelerationY_mps2,accelerationZ_mps2,gyroscopeX_dps,gyroscopeY_dps,gyroscopeZ_dps,magnetometerX_nT,magnetometerY_nT,magnetometerZ_nT,roll_deg,pitch_deg,yaw_deg,forceX_N,jerkX_mps3,referencePressure_hPa,altitude_m,verticalSpeed_mps,verticalAcceleration_msp2,estimated,apogee,isFalling,groundVoltage_V,batteryVoltage_V,busVoltage_V,groundCurrent_mA,batteryCurrent_mA,busCurrent_mA,groundPower_mW,batteryPower_mW,busPower_mW
[2025-07-07 06:13:13.785] ,1808,0,0,0.00,9.73,-1.03,-1.22,-2.37,-4.00,4.62,0.00,0.00,0.00,-4.28,82.79,8.34,0.00,0.00,0.00,58.34,0.00,0.00,0.00,0.00,0,0.00,0.00,0.00,0.00,0.00,0.00,0.00,0.00,0.00
[2025-07-07 06:13:13.808] ,1824,0,0,0.01,9.77,-1.01,-1.30,6.12,-3.50,-2.25,-21.31,12.88,-28.87,-4.19,82.74,8.30,0.00,0.00,0.00,58.33,0.00,0.00,0.00,0.00,0,0.00,0.00,0.00,0.00,0.00,0.00,0.00,0.00,0.00
[2025-07-07 06:13:13.817] ,1837,0,0,0.01,9.67,-1.09,-1.20,6.25,1.62,-0.25,-21.31,12.88,-28.87,-4.11,82.76,8.30,0.00,0.00,0.00,58.33,0.00,0.00,0.00,0.00,0,0.00,0.00,0.00,0.00,0.00,0.00,0.00,0.00,0.00
[2025-07-07 06:13:13.833] ,1849,0,0,0.02,9.65,-1.09,-1.22,2.00,-5.87,2.87,-21.31,12.88,-28.87,-4.08,82.68,8.33,0.00,0.00,0.00,58.30,0.00,0.00,0.00,0.00,0,0.00,0.00,0.00,0.00,0.00,0.00,0.00,0.00,0.00
[2025-07-07 06:13:13.833] ,1862,0,0,0.02,9.82,-1.09,-1.26,-0.75,-2.87,-3.25,-21.31,12.88,-28.87,-4.09,82.65,8.29,0.00,0.00,0.00,58.29,0.00,0.00,0.00,0.00,0,0.00,0.00,0.00,0.00,0.00,0.00,0.00,0.00,0.00
[2025-07-07 06:13:13.858] ,1881,0,0,0.03,9.75,-1.03,-1.20,1.87,-4.12,-0.25,-22.12,11.44,-29.56,-4.06,82.57,8.29,-7.13,-0.14,0.00,58.32,116.58,58.29,-2.00,-58.29,0,0.00,0.00,0.00,0.00,0.00,0.00,0.00,0.00,0.00
[2025-07-07 06:13:13.864] ,1893,0,0,0.03,9.61,-1.14,-1.24,-9.25,4.25,-3.87,-22.12,11.44,-29.56,-4.18,82.62,8.24,-7.13,-0.14,0.00,58.34,116.58,58.29,-2.00,-58.29,0,0.00,0.00,0.00,0.00,0.00,0.00,0.00,0.00,0.00
[2025-07-07 06:13:13.880] ,1906,0,0,0.04,9.63,-1.16,-1.26,-8.63,2.62,-8.13,-22.12,11.44,-29.56,-4.28,82.66,8.14,-7.13,-0.14,0.00,58.34,116.58,58.29,-2.00,-58.29,0,0.00,0.00,0.00,0.00,0.00,0.00,0.00,0.00,0.00
[2025-07-07 06:13:13.896] ,1921,0,0,0.04,9.63,-1.11,-1.32,0.88,1.12,1.50,-22.50,11.81,-29.56,-4.27,82.68,8.16,-7.13,-0.14,0.00,58.29,116.58,58.29,-2.00,-58.29,0,0.00,0.00,0.00,0.00,0.00,0.00,0.00,0.00,0.00
[2025-07-07 06:13:13.912] ,1934,0,0,0.05,9.77,-1.05,-1.22,-2.75,-2.00,5.25,-22.50,11.81,-29.56,-4.31,82.65,8.22,-7.13,-0.14,0.00,58.26,116.58,58.29,-2.00,-58.29,0,0.00,0.00,0.00,0.00,0.00,0.00,0.00,0.00,0.00
[2025-07-07 06:13:13.928] ,1947,0,0,0.05,9.63,-1.13,-1.34,-0.62,5.12,4.75,-22.50,11.81,-29.56,-4.31,82.72,8.29,-7.13,-0.14,0.00,58.26,116.58,58.29,-2.00,-58.29,0,0.00,0.00,0.00,0.00,0.00,0.00,0.00,0.00,0.00
[2025-07-07 06:13:13.932] ,1959,0,0,0.06,9.71,-1.03,-1.28,3.00,0.88,-2.75,-22.50,11.81,-29.56,-4.27,82.73,8.25,-7.13,-0.14,0.00,58.30,116.58,58.29,-2.00,-58.29,0,0.00,0.00,0.00,0.00,0.00,0.00,0.00,0.00,0.00
[2025-07-07 06:13:13.956] ,1978,0,0,0.06,9.67,-1.16,-1.20,0.50,1.62,-1.75,-22.12,11.44,-29.94,-4.26,82.76,8.22,-5.06,-0.03,0.00,58.30,-318.46,-213.61,-1.49,295.69,1,0.00,0.00,0.00,0.00,0.00,0.00,0.00,0.00,0.00
[2025-07-07 06:13:13.958] ,1991,0,0,0.07,9.77,-1.11,-1.22,-8.13,1.37,-0.75,-22.12,11.44,-29.94,-4.37,82.78,8.21,-5.06,-0.03,0.00,58.30,-318.46,-213.61,-1.49,295.69,1,0.00,0.00,0.00,0.00,0.00,0.00,0.00,0.00,0.00
[2025-07-07 06:13:13.982] ,2003,0,0,0.07,9.75,-1.07,-1.20,-0.62,-2.87,4.50,-22.12,11.44,-29.94,-4.38,82.74,8.26,-5.06,-0.03,0.00,58.26,-318.46,-213.61,-1.49,295.69,1,0.00,0.00,0.00,0.00,0.00,0.00,0.00,0.00,0.00
[2025-07-07 06:13:13.987] ,2016,0,0,0.08,9.77,-1.14,-1.26,-0.37,-1.37,1.12,-22.12,11.44,-29.94,-4.38,82.72,8.28,-5.06,-0.03,0.00,58.26,-318.46,-213.61,-1.49,295.69,1,0.00,0.00,0.00,0.00,0.00,0.00,0.00,0.00,0.00
[2025-07-07 06:13:14.008] ,2031,0,0,0.08,9.79,-1.05,-1.28,-4.12,0.75,-1.87,-22.50,11.81,-28.87,-4.44,82.73,8.25,-5.06,-0.03,0.00,58.31,-318.46,-213.61,-1.49,295.69,1,0.00,0.00,0.00,0.00,0.00,0.00,0.00,0.00,0.00
[2025-07-07 06:13:14.023] ,2044,0,0,0.09,9.81,-1.11,-1.22,1.25,1.62,-0.75,-22.50,11.81,-28.87,-4.43,82.75,8.24,-5.06,-0.03,0.00,58.31,-318.46,-213.61,-1.49,295.69,1,0.00,0.00,0.00,0.00,0.00,0.00,0.00,0.00,0.00
[2025-07-07 06:13:14.039] ,2057,0,0,0.09,9.69,-1.07,-1.28,0.50,-0.75,-1.37,-22.50,11.81,-28.87,-4.42,82.74,8.22,-5.06,-0.03,0.00,58.29,-318.46,-213.61,-1.49,295.69,1,0.00,0.00,0.00,0.00,0.00,0.00,0.00,0.00,0.00
[2025-07-07 06:13:14.058] ,2075,0,0,0.10,9.63,-1.05,-1.30,-3.37,-3.25,6.00,-20.94,12.88,-29.94,-4.49,82.68,8.34,-3.53,-0.00,0.00,58.33,-256.19,-172.04,-1.49,249.06,1,0.00,0.00,0.00,0.00,0.00,0.00,0.00,0.00,0.00
[2025-07-07 06:13:14.071] ,2088,0,0,0.10,9.79,-1.09,-1.18,-8.50,-1.25,5.62,-20.94,12.88,-29.94,-4.59,82.67,8.41,-3.53,-0.00,0.00,58.33,-256.19,-172.04,-1.49,249.06,1,0.00,0.00,0.00,0.00,0.00,0.00,0.00,0.00,0.00
[2025-07-07 06:13:14.086] ,2101,0,0,0.11,9.75,-1.13,-1.22,-0.62,-3.12,0.75,-20.94,12.88,-29.94,-4.60,82.63,8.42,-3.53,-0.00,0.00,58.32,-256.19,-172.04,-1.49,249.06,1,0.00,0.00,0.00,0.00,0.00,0.00,0.00,0.00,0.00
[2025-07-07 06:13:14.086] ,2114,0,0,0.11,9.79,-1.07,-1.32,9.38,-0.25,3.00,-20.94,12.88,-29.94,-4.48,82.62,8.46,-3.53,-0.00,0.00,58.31,-256.19,-172.04,-1.49,249.06,1,0.00,0.00,0.00,0.00,0.00,0.00,0.00,0.00,0.00
[2025-07-07 06:13:14.108] ,2129,0,0,0.12,9.75,-1.01,-1.22,-0.75,-3.00,-0.37,-22.12,12.50,-29.19,-4.49,82.58,8.45,-3.53,-0.00,0.00,58.26,-256.19,-172.04,-1.49,249.06,1,0.00,0.00,0.00,0.00,0.00,0.00,0.00,0.00,0.00
[2025-07-07 06:13:14.128] ,2143,0,0,0.12,9.61,-1.09,-1.26,-1.75,3.00,1.50,-22.12,12.50,-29.19,-4.52,82.62,8.47,-3.53,-0.00,0.00,58.25,-256.19,-172.04,-1.49,249.06,1,0.00,0.00,0.00,0.00,0.00,0.00,0.00,0.00,0.00
[2025-07-07 06:13:14.134] ,2155,0,0,0.13,9.69,-1.13,-1.37,3.75,2.37,3.87,-22.12,12.50,-29.19,-4.47,82.65,8.52,-3.53,-0.00,0.00,58.25,-256.19,-172.04,-1.49,249.06,1,0.00,0.00,0.00,0.00,0.00,0.00,0.00,0.00,0.00
[2025-07-07 06:13:14.158] ,2173,0,0,0.13,9.71,-1.11,-1.26,3.50,1.62,-1.50,-22.12,11.81,-28.87,-4.40,82.68,8.49,-2.14,0.02,0.00,58.27,-206.49,-138.82,-1.49,211.82,1,0.00,0.00,0.00,0.00,0.00,0.00,0.00,0.00,0.00
[2025-07-07 06:13:14.163] ,2186,0,0,0.14,9.63,-1.01,-1.28,2.00,5.00,-0.88,-22.12,11.81,-28.87,-4.38,82.74,8.48,-2.14,0.02,0.00,58.27,-206.49,-138.82,-1.49,211.82,1,0.00,0.00,0.00,0.00,0.00,0.00,0.00,0.00,0.00
[2025-07-07 06:13:14.179] ,2199,0,0,0.14,9.71,-1.16,-1.28,-7.25,3.87,0.00,-22.12,11.81,-28.87,-4.47,82.79,8.48,-2.14,0.02,0.00,58.31,-206.49,-138.82,-1.49,211.82,1,0.00,0.00,0.00,0.00,0.00,0.00,0.00,0.00,0.00
[2025-07-07 06:13:14.195] ,2211,0,0,0.15,9.82,-1.07,-1.22,-4.87,1.87,-0.50,-22.12,11.81,-28.87,-4.53,82.81,8.48,-2.14,0.02,0.00,58.34,-206.49,-138.82,-1.49,211.82,1,0.00,0.00,0.00,0.00,0.00,0.00,0.00,0.00,0.00
[2025-07-07 06:13:14.211] ,2227,0,0,0.15,9.75,-1.09,-1.18,-0.13,-0.37,-3.00,-21.31,11.44,-29.94,-4.53,82.81,8.43,-2.14,0.02,0.00,58.34,-206.49,-138.82,-1.49,211.82,1,0.00,0.00,0.00,0.00,0.00,0.00,0.00,0.00,0.00
[2025-07-07 06:13:14.227] ,2239,0,0,0.16,9.61,-1.01,-1.26,-6.12,-0.88,-6.62,-21.31,11.44,-29.94,-4.61,82.79,8.34,-2.14,0.02,0.00,58.32,-206.49,-138.82,-1.49,211.82,1,0.00,0.00,0.00,0.00,0.00,0.00,0.00,0.00,0.00
[2025-07-07 06:13:14.232] ,2252,0,0,0.16,9.73,-1.07,-1.22,-0.62,5.50,-3.87,-21.31,11.44,-29.94,-4.62,82.86,8.29,-2.14,0.02,0.00,58.28,-206.49,-138.82,-1.49,211.82,1,0.00,0.00,0.00,0.00,0.00,0.00,0.00,0.00,0.00
[2025-07-07 06:13:14.243] ,2265,0,0,0.17,9.77,-1.11,-1.28,4.50,4.87,-1.62,-21.31,11.44,-29.94,-4.56,82.92,8.27,-2.14,0.02,0.00,58.25,-206.49,-138.82,-1.49,211.82,1,0.00,0.00,0.00,0.00,0.00,0.00,0.00,0.00,0.00
[2025-07-07 06:13:14.268] ,2288,0,0,0.17,9.71,-1.11,-1.20,2.00,-1.50,0.75,-21.31,12.19,-29.94,-4.51,82.89,8.29,-0.44,0.06,0.00,58.24,-165.85,-111.67,-1.49,181.40,1,0.00,0.00,0.00,0.00,0.00,0.00,0.00,0.00,0.00
[2025-07-07 06:13:14.280] ,2301,0,0,0.18,9.69,-1.14,-1.22,-0.75,-0.88,-1.62,-21.31,12.19,-29.94,-4.52,82.88,8.27,-0.44,0.06,0.00,58.25,-165.85,-111.67,-1.49,181.40,1,0.00,0.00,0.00,0.00,0.00,0.00,0.00,0.00,0.00
[2025-07-07 06:13:14.294] ,2313,0,0,0.18,9.73,-1.09,-1.28,-8.50,-0.50,4.87,-21.31,12.19,-29.94,-4.63,82.87,8.33,-0.44,0.06,0.00,58.25,-165.85,-111.67,-1.49,181.40,1,0.00,0.00,0.00,0.00,0.00,0.00,0.00,0.00,0.00
[2025-07-07 06:13:14.308] ,2329,0,0,0.19,9.81,-1.01,-1.24,-4.00,-2.00,4.75,-20.50,12.19,-29.56,-4.69,82.84,8.40,-0.44,0.06,0.00,58.29,-165.85,-111.67,-1.49,181.40,1,0.00,0.00,0.00,0.00,0.00,0.00,0.00,0.00,0.00
[2025-07-07 06:13:14.320] ,2341,0,0,0.19,9.71,-1.11,-1.26,5.00,3.75,1.25,-20.50,12.19,-29.56,-4.63,82.89,8.42,-0.44,0.06,0.00,58.30,-165.85,-111.67,-1.49,181.40,1,0.00,0.00,0.00,0.00,0.00,0.00,0.00,0.00,0.00
[2025-07-07 06:13:14.332] ,2353,0,0,0.20,9.69,-1.13,-1.32,4.00,2.00,-0.13,-20.50,12.19,-29.56,-4.58,82.91,8.42,-0.44,0.06,0.00,58.31,-165.85,-111.67,-1.49,181.40,1,0.00,0.00,0.00,0.00,0.00,0.00,0.00,0.00,0.00
[2025-07-07 06:13:14.348] ,2365,0,0,0.20,9.63,-1.05,-1.30,1.50,-1.25,-1.50,-20.50,12.19,-29.56,-4.56,82.90,8.40,-0.44,0.06,0.00,58.31,-165.85,-111.67,-1.49,181.40,1,0.00,0.00,0.00,0.00,0.00,0.00,0.00,0.00,0.00
[2025-07-07 06:13:14.358] ,2384,0,0,0.21,9.63,-1.07,-1.28,6.62,-3.62,5.12,-22.50,12.50,-29.94,-4.44,82.83,8.49,-1.76,0.03,0.00,58.34,-129.36,-87.30,-1.48,154.14,1,0.00,0.00,0.00,0.00,0.00,0.00,0.00,0.00,0.00
[2025-07-07 06:13:14.371] ,2397,0,0,0.21,9.77,-1.13,-1.22,1.00,-1.87,3.62,-22.50,12.50,-29.94,-4.43,82.81,8.54,-1.76,0.03,0.00,58.32,-129.36,-87.30,-1.48,154.14,1,0.00,0.00,0.00,0.00,0.00,0.00,0.00,0.00,0.00
[2025-07-07 06:13:14.390] ,2409,0,0,0.22,9.77,-1.16,-1.28,10.00,-0.88,4.50,-22.50,12.50,-29.94,-4.30,82.80,8.60,-1.76,0.03,0.00,58.33,-129.36,-87.30,-1.48,154.14,1,0.00,0.00,0.00,0.00,0.00,0.00,0.00,0.00,0.00
[2025-07-07 06:13:14.404] ,2425,0,0,0.23,9.81,-1.07,-1.28,2.62,0.25,-7.00,-22.12,12.88,-28.87,-4.26,82.80,8.49,-1.76,0.03,0.00,58.30,-129.36,-87.30,-1.48,154.14,1,0.00,0.00,0.00,0.00,0.00,0.00,0.00,0.00,0.00
[2025-07-07 06:13:14.419] ,2437,0,0,0.23,9.65,-1.05,-1.26,4.75,0.00,4.62,-22.12,12.88,-28.87,-4.20,82.80,8.54,-1.76,0.03,0.00,58.30,-129.36,-87.30,-1.48,154.14,1,0.00,0.00,0.00,0.00,0.00,0.00,0.00,0.00,0.00
[2025-07-07 06:13:14.432] ,2450,0,0,0.24,9.61,-1.07,-1.26,-1.12,5.62,2.37,-22.12,12.88,-28.87,-4.22,82.87,8.57,-1.76,0.03,0.00,58.23,-129.36,-87.30,-1.48,154.14,1,0.00,0.00,0.00,0.00,0.00,0.00,0.00,0.00,0.00
[2025-07-07 06:13:14.434] ,2463,0,0,0.24,9.61,-1.09,-1.13,-6.00,2.25,1.12,-22.12,12.88,-28.87,-4.29,82.90,8.59,-1.76,0.03,0.00,58.29,-129.36,-87.30,-1.48,154.14,1,0.00,0.00,0.00,0.00,0.00,0.00,0.00,0.00,0.00
[2025-07-07 06:13:14.458] ,2481,0,0,0.25,9.75,-1.09,-1.34,-3.12,5.12,-1.62,-20.50,12.50,-30.31,-4.35,82.99,8.56,-1.60,0.03,0.00,58.33,-103.35,-69.91,-1.48,134.69,1,0.00,0.00,0.00,0.00,0.00,0.00,0.00,0.00,0.00
[2025-07-07 06:13:14.474] ,2494,0,0,0.25,9.65,-1.09,-1.34,3.87,0.00,2.37,-20.50,12.50,-30.31,-4.30,82.99,8.59,-1.60,0.03,0.00,58.33,-103.35,-69.91,-1.48,134.69,1,0.00,0.00,0.00,0.00,0.00,0.00,0.00,0.00,0.00
[2025-07-07 06:13:14.482] ,2505,0,0,0.26,9.79,-1.09,-1.26,-8.38,2.00,-0.88,-20.50,12.50,-30.31,-4.41,83.02,8.58,-1.60,0.03,0.00,58.29,-103.35,-69.91,-1.48,134.69,1,0.00,0.00,0.00,0.00,0.00,0.00,0.00,0.00,0.00
[2025-07-07 06:13:14.495] ,2521,0,0,0.26,9.79,-1.11,-1.18,6.37,-3.12,4.00,-22.12,11.81,-29.19,-4.32,82.98,8.63,-1.60,0.03,0.00,58.29,-103.35,-69.91,-1.48,134.69,1,0.00,0.00,0.00,0.00,0.00,0.00,0.00,0.00,0.00
[2025-07-07 06:13:14.511] ,2534,0,0,0.27,9.63,-1.09,-1.26,7.62,-3.87,3.00,-22.12,11.81,-29.19,-4.21,82.92,8.67,-1.60,0.03,0.00,58.27,-103.35,-69.91,-1.48,134.69,1,0.00,0.00,0.00,0.00,0.00,0.00,0.00,0.00,0.00
[2025-07-07 06:13:14.530] ,2546,0,0,0.27,9.71,-1.13,-1.32,-3.12,-2.87,-0.13,-22.12,11.81,-29.19,-4.25,82.89,8.67,-1.60,0.03,0.00,58.25,-103.35,-69.91,-1.48,134.69,1,0.00,0.00,0.00,0.00,0.00,0.00,0.00,0.00,0.00
[2025-07-07 06:13:14.532] ,2559,0,0,0.28,9.61,-1.14,-1.30,-5.50,2.50,1.75,-22.12,11.81,-29.19,-4.32,82.92,8.69,-1.60,0.03,0.00,58.25,-103.35,-69.91,-1.48,134.69,1,0.00,0.00,0.00,0.00,0.00,0.00,0.00,0.00,0.00
[2025-07-07 06:13:14.558] ,2577,0,0,0.28,9.69,-1.14,-1.28,-2.75,-2.50,0.75,-20.50,12.88,-29.56,-4.37,82.87,8.71,-1.42,0.04,0.00,58.27,-83.33,-56.50,-1.47,119.70,1,0.00,0.00,0.00,0.00,0.00,0.00,0.00,0.00,0.00
[2025-07-07 06:13:14.563] ,2590,0,0,0.29,9.69,-1.16,-1.28,8.25,-5.25,8.88,-20.50,12.88,-29.56,-4.27,82.81,8.82,-1.42,0.04,0.00,58.24,-83.33,-56.50,-1.47,119.70,1,0.00,0.00,0.00,0.00,0.00,0.00,0.00,0.00,0.00
[2025-07-07 06:13:14.579] ,2603,0,0,0.29,9.73,-1.13,-1.22,-0.37,-1.62,1.87,-20.50,12.88,-29.56,-4.27,82.79,8.84,-1.42,0.04,0.00,58.21,-83.33,-56.50,-1.47,119.70,1,0.00,0.00,0.00,0.00,0.00,0.00,0.00,0.00,0.00
[2025-07-07 06:13:14.595] ,2615,0,0,0.30,9.59,-1.20,-1.24,-9.38,4.12,-3.00,-20.50,12.88,-29.56,-4.39,82.84,8.81,-1.42,0.04,0.00,58.21,-83.33,-56.50,-1.47,119.70,1,0.00,0.00,0.00,0.00,0.00,0.00,0.00,0.00,0.00
[2025-07-07 06:13:14.611] ,2631,0,0,0.30,9.65,-1.24,-1.26,-0.50,4.75,-0.37,-21.69,11.81,-28.87,-4.40,82.91,8.80,-1.42,0.04,0.00,58.23,-83.33,-56.50,-1.47,119.70,1,0.00,0.00,0.00,0.00,0.00,0.00,0.00,0.00,0.00
[2025-07-07 06:13:14.626] ,2643,0,0,0.31,9.63,-1.24,-1.26,-4.25,3.87,-2.37,-21.69,11.81,-28.87,-4.45,82.96,8.77,-1.42,0.04,0.00,58.24,-83.33,-56.50,-1.47,119.70,1,0.00,0.00,0.00,0.00,0.00,0.00,0.00,0.00,0.00
[2025-07-07 06:13:14.632] ,2656,0,0,0.31,9.56,-1.05,-1.32,1.00,-1.25,1.75,-21.69,11.81,-28.87,-4.44,82.95,8.79,-1.42,0.04,0.00,58.25,-83.33,-56.50,-1.47,119.70,1,0.00,0.00,0.00,0.00,0.00,0.00,0.00,0.00,0.00
[2025-07-07 06:13:14.643] ,2675,0,0,0.32,9.77,-1.22,-1.22,3.37,-3.37,-1.50,-20.94,12.50,-29.94,-4.38,82.88,8.76,-1.70,0.03,0.00,58.26,-67.30,-45.77,-1.47,107.73,1,0.00,0.00,0.00,0.00,0.00,0.00,0.00,0.00,0.00
[2025-07-07 06:13:14.658] ,2688,0,0,0.32,9.71,-1.16,-1.22,-3.62,2.62,-0.62,-20.94,12.50,-29.94,-4.42,82.91,8.75,-1.70,0.03,0.00,58.21,-67.30,-45.77,-1.47,107.73,1,0.00,0.00,0.00,0.00,0.00,0.00,0.00,0.00,0.00
[2025-07-07 06:13:14.676] ,2700,0,0,0.33,9.69,-1.16,-1.30,-5.25,0.75,1.50,-20.94,12.50,-29.94,-4.49,82.92,8.77,-1.70,0.03,0.00,58.21,-67.30,-45.77,-1.47,107.73,1,0.00,0.00,0.00,0.00,0.00,0.00,0.00,0.00,0.00
[2025-07-07 06:13:14.690] ,2713,0,0,0.33,9.67,-1.03,-1.30,-0.25,0.50,5.12,-20.94,12.50,-29.94,-4.49,82.93,8.84,-1.70,0.03,0.00,58.22,-67.30,-45.77,-1.47,107.73,1,0.00,0.00,0.00,0.00,0.00,0.00,0.00,0.00,0.00
[2025-07-07 06:13:14.708] ,2729,0,0,0.34,9.61,-1.05,-1.22,-0.88,-2.87,2.37,-21.31,11.06,-29.19,-4.51,82.88,8.88,-1.70,0.03,0.00,58.29,-67.30,-45.77,-1.47,107.73,1,0.00,0.00,0.00,0.00,0.00,0.00,0.00,0.00,0.00
[2025-07-07 06:13:14.708] ,2741,0,0,0.34,9.67,-1.22,-1.24,2.00,-1.12,0.00,-21.31,11.06,-29.19,-4.48,82.87,8.88,-1.70,0.03,0.00,58.29,-67.30,-45.77,-1.47,107.73,1,0.00,0.00,0.00,0.00,0.00,0.00,0.00,0.00,0.00
[2025-07-07 06:13:14.732] ,2754,0,0,0.35,9.61,-1.07,-1.26,4.87,0.50,-3.50,-21.31,11.06,-29.19,-4.42,82.88,8.83,-1.70,0.03,0.00,58.30,-67.30,-45.77,-1.47,107.73,1,0.00,0.00,0.00,0.00,0.00,0.00,0.00,0.00,0.00
[2025-07-07 06:13:14.737] ,2766,0,0,0.35,9.75,-1.09,-1.28,0.88,-2.75,1.87,-21.31,11.06,-29.19,-4.41,82.84,8.85,-1.70,0.03,0.00,58.29,-67.30,-45.77,-1.47,107.73,1,0.00,0.00,0.00,0.00,0.00,0.00,0.00,0.00,0.00
[2025-07-07 06:13:14.760] ,2789,0,0,0.36,9.63,-1.20,-1.22,2.87,2.62,4.75,-21.69,12.19,-29.56,-4.34,82.90,8.96,0.88,0.08,0.00,58.27,-54.09,-36.93,-1.46,97.90,1,0.00,0.00,0.00,0.00,0.00,0.00,0.00,0.00,0.00
[2025-07-07 06:13:14.768] ,2801,0,0,0.36,9.81,-1.09,-1.32,-0.25,1.37,-0.25,-21.69,12.19,-29.56,-4.35,82.92,8.96,0.88,0.08,0.00,58.24,-54.09,-36.93,-1.46,97.90,1,0.00,0.00,0.00,0.00,0.00,0.00,0.00,0.00,0.00
[2025-07-07 06:13:14.788] ,2814,0,0,0.37,9.65,-1.22,-1.18,-0.37,3.87,0.62,-21.69,12.19,-29.56,-4.35,82.97,8.97,0.88,0.08,0.00,58.24,-54.09,-36.93,-1.46,97.90,1,0.00,0.00,0.00,0.00,0.00,0.00,0.00,0.00,0.00
[2025-07-07 06:13:14.804] ,2830,0,0,0.37,9.84,-1.18,-1.28,-1.00,3.25,3.12,-21.31,12.19,-29.19,-4.37,83.02,9.02,0.88,0.08,0.00,58.27,-54.09,-36.93,-1.46,97.90,1,0.00,0.00,0.00,0.00,0.00,0.00,0.00,0.00,0.00
[2025-07-07 06:13:14.820] ,2842,0,0,0.38,9.65,-1.16,-1.28,1.37,2.87,-2.37,-21.31,12.19,-29.19,-4.35,83.05,8.99,0.88,0.08,0.00,58.27,-54.09,-36.93,-1.46,97.90,1,0.00,0.00,0.00,0.00,0.00,0.00,0.00,0.00,0.00
[2025-07-07 06:13:14.832] ,2855,0,0,0.38,9.79,-1.20,-1.30,-8.25,3.87,1.25,-21.31,12.19,-29.19,-4.45,83.10,9.00,0.88,0.08,0.00,58.28,-54.09,-36.93,-1.46,97.90,1,0.00,0.00,0.00,0.00,0.00,0.00,0.00,0.00,0.00
[2025-07-07 06:13:14.836] ,2874,0,0,0.39,9.63,-1.13,-1.32,1.12,1.12,-2.87,-21.69,12.50,-29.94,-4.43,83.12,8.95,1.18,0.08,0.00,58.28,-42.28,-29.00,-1.46,89.10,1,0.00,0.00,0.00,0.00,0.00,0.00,0.00,0.00,0.00
[2025-07-07 06:13:14.858] ,2886,0,0,0.39,9.69,-1.16,-1.26,-1.75,1.62,-9.38,-21.69,12.50,-29.94,-4.45,83.14,8.83,1.18,0.08,0.00,58.28,-42.28,-29.00,-1.46,89.10,1,0.00,0.00,0.00,0.00,0.00,0.00,0.00,0.00,0.00
[2025-07-07 06:13:14.867] ,2899,0,0,0.40,9.73,-1.09,-1.26,-3.12,-2.62,0.37,-21.69,12.50,-29.94,-4.49,83.11,8.84,1.18,0.08,0.00,58.31,-42.28,-29.00,-1.46,89.10,1,0.00,0.00,0.00,0.00,0.00,0.00,0.00,0.00,0.00
[2025-07-07 06:13:14.883] ,2911,0,0,0.40,9.71,-1.03,-1.39,-5.75,-2.37,-2.50,-21.69,12.50,-29.94,-4.56,83.08,8.81,1.18,0.08,0.00,58.31,-42.28,-29.00,-1.46,89.10,1,0.00,0.00,0.00,0.00,0.00,0.00,0.00,0.00,0.00
[2025-07-07 06:13:14.899] ,2927,0,0,0.41,9.84,-1.07,-1.28,-2.37,2.87,-3.25,-22.12,11.81,-29.56,-4.60,83.13,8.76,1.18,0.08,0.00,58.29,-42.28,-29.00,-1.46,89.10,1,0.00,0.00,0.00,0.00,0.00,0.00,0.00,0.00,0.00
[2025-07-07 06:13:14.915] ,2939,0,0,0.41,9.65,-1.14,-1.30,0.13,0.75,-0.50,-22.12,11.81,-29.56,-4.60,83.13,8.75,1.18,0.08,0.00,58.26,-42.28,-29.00,-1.46,89.10,1,0.00,0.00,0.00,0.00,0.00,0.00,0.00,0.00,0.00
[2025-07-07 06:13:14.932] ,2951,0,0,0.42,9.75,-1.14,-1.28,11.75,-3.62,1.87,-22.12,11.81,-29.56,-4.45,83.09,8.77,1.18,0.08,0.00,58.26,-42.28,-29.00,-1.46,89.10,1,0.00,0.00,0.00,0.00,0.00,0.00,0.00,0.00,0.00
[2025-07-07 06:13:14.932] ,2963,0,0,0.42,9.63,-1.09,-1.28,-3.37,-0.50,-6.00,-22.12,11.81,-29.56,-4.49,83.08,8.70,1.18,0.08,0.00,58.26,-42.28,-29.00,-1.46,89.10,1,0.00,0.00,0.00,0.00,0.00,0.00,0.00,0.00,0.00
[2025-07-07 06:13:14.958] ,2982,0,0,0.43,9.59,-1.09,-1.30,8.63,3.37,8.63,-21.69,11.44,-28.87,-4.34,83.14,8.85,-1.03,0.04,0.00,58.31,-34.76,-23.94,-1.45,83.48,1,0.00,0.00,0.00,0.00,0.00,0.00,0.00,0.00,0.00
[2025-07-07 06:13:14.974] ,2994,0,0,0.44,9.61,-1.16,-1.37,-3.12,-3.50,1.75,-21.69,11.44,-28.87,-4.38,83.10,8.87,-1.03,0.04,0.00,58.29,-34.76,-23.94,-1.45,83.48,1,0.00,0.00,0.00,0.00,0.00,0.00,0.00,0.00,0.00
[2025-07-07 06:13:14.979] ,3007,0,0,0.44,9.71,-1.18,-1.28,8.63,-6.62,-5.25,-21.69,11.44,-28.87,-4.27,83.01,8.81,-1.03,0.04,0.00,58.29,-34.76,-23.94,-1.45,83.48,1,0.00,0.00,0.00,0.00,0.00,0.00,0.00,0.00,0.00
[2025-07-07 06:13:14.995] ,3022,0,0,0.45,9.73,-1.20,-1.26,-2.12,-3.00,-1.87,-21.69,11.44,-29.56,-4.30,82.97,8.78,-1.03,0.04,0.00,58.29,-34.76,-23.94,-1.45,83.48,1,0.00,0.00,0.00,0.00,0.00,0.00,0.00,0.00,0.00
[2025-07-07 06:13:15.011] ,3035,0,0,0.45,9.77,-1.16,-1.28,-2.12,4.37,5.00,-21.69,11.44,-29.56,-4.33,83.02,8.84,-1.03,0.04,0.00,58.32,-34.76,-23.94,-1.45,83.48,1,0.00,0.00,0.00,0.00,0.00,0.00,0.00,0.00,0.00
[2025-07-07 06:13:15.026] ,3047,0,0,0.46,9.67,-1.13,-1.36,-5.00,7.50,-5.75,-21.69,11.44,-29.56,-4.39,83.12,8.77,-1.03,0.04,0.00,58.27,-34.76,-23.94,-1.45,83.48,1,0.00,0.00,0.00,0.00,0.00,0.00,0.00,0.00,0.00
[2025-07-07 06:13:15.043] ,3060,0,0,0.46,9.71,-1.16,-1.28,0.13,-3.25,0.62,-21.69,11.44,-29.56,-4.39,83.08,8.77,-1.03,0.04,0.00,58.27,-34.76,-23.94,-1.45,83.48,1,0.00,0.00,0.00,0.00,0.00,0.00,0.00,0.00,0.00
[2025-07-07 06:13:15.047] ,3079,0,0,0.47,9.73,-1.11,-1.22,5.12,-4.62,-0.37,-21.31,12.88,-28.87,-4.29,82.99,8.77,0.15,0.06,0.00,58.33,-27.23,-18.89,-1.44,77.90,1,0.00,0.00,0.00,0.00,0.00,0.00,0.00,0.00,0.00
[2025-07-07 06:13:15.068] ,3091,0,0,0.47,9.63,-1.11,-1.26,5.50,-2.00,1.75,-21.31,12.88,-28.87,-4.22,82.97,8.79,0.15,0.06,0.00,58.33,-27.23,-18.89,-1.44,77.90,1,0.00,0.00,0.00,0.00,0.00,0.00,0.00,0.00,0.00
[2025-07-07 06:13:15.073] ,3104,0,0,0.48,9.69,-1.14,-1.30,-2.12,-2.62,2.62,-21.31,12.88,-28.87,-4.25,82.93,8.82,0.15,0.06,0.00,58.31,-27.23,-18.89,-1.44,77.90,1,0.00,0.00,0.00,0.00,0.00,0.00,0.00,0.00,0.00
[2025-07-07 06:13:15.089] ,3116,0,0,0.48,9.67,-1.14,-1.26,9.13,-4.87,1.75,-21.31,12.88,-28.87,-4.13,82.87,8.85,0.15,0.06,0.00,58.30,-27.23,-18.89,-1.44,77.90,1,0.00,0.00,0.00,0.00,0.00,0.00,0.00,0.00,0.00
[2025-07-07 06:13:15.112] ,3132,0,0,0.49,9.69,-1.05,-1.16,0.62,-1.62,3.62,-21.31,12.19,-29.56,-4.12,82.85,8.90,0.15,0.06,0.00,58.30,-27.23,-18.89,-1.44,77.90,1,0.00,0.00,0.00,0.00,0.00,0.00,0.00,0.00,0.00
[2025-07-07 06:13:15.121] ,3145,0,0,0.49,9.84,-1.14,-1.28,5.62,2.50,1.12,-21.31,12.19,-29.56,-4.05,82.88,8.91,0.15,0.06,0.00,58.28,-27.23,-18.89,-1.44,77.90,1,0.00,0.00,0.00,0.00,0.00,0.00,0.00,0.00,0.00
[2025-07-07 06:13:15.137] ,3157,0,0,0.50,9.71,-1.11,-1.20,-3.37,1.87,-1.12,-21.31,12.19,-29.56,-4.10,82.90,8.90,0.15,0.06,0.00,58.28,-27.23,-18.89,-1.44,77.90,1,0.00,0.00,0.00,0.00,0.00,0.00,0.00,0.00,0.00
[2025-07-07 06:13:15.153] ,3177,0,0,0.50,9.82,-1.09,-1.26,0.00,4.12,-3.75,-21.69,12.19,-29.94,-4.10,82.98,8.83,0.14,0.06,0.00,58.28,-21.94,-15.33,-1.43,73.98,1,0.00,0.00,0.00,0.00,0.00,0.00,0.00,0.00,0.00
[2025-07-07 06:13:15.168] ,3190,0,0,0.51,9.71,-1.14,-1.34,6.12,-1.87,1.37,-21.69,12.19,-29.94,-4.02,82.96,8.85,0.14,0.06,0.00,58.29,-21.94,-15.33,-1.43,73.98,1,0.00,0.00,0.00,0.00,0.00,0.00,0.00,0.00,0.00
[2025-07-07 06:13:15.185] ,3202,0,0,0.51,9.63,-1.14,-1.22,6.00,3.37,-4.00,-21.69,12.19,-29.94,-3.94,83.00,8.79,0.14,0.06,0.00,58.29,-21.94,-15.33,-1.43,73.98,1,0.00,0.00,0.00,0.00,0.00,0.00,0.00,0.00,0.00
[2025-07-07 06:13:15.197] ,3215,0,0,0.52,9.75,-1.14,-1.26,3.37,-3.87,-1.37,-21.69,12.19,-29.94,-3.90,82.95,8.78,0.14,0.06,0.00,58.29,-21.94,-15.33,-1.43,73.98,1,0.00,0.00,0.00,0.00,0.00,0.00,0.00,0.00,0.00
[2025-07-07 06:13:15.211] ,3231,0,0,0.52,9.67,-1.01,-1.28,-5.62,1.12,-1.00,-21.69,12.19,-29.56,-3.99,82.97,8.76,0.14,0.06,0.00,58.29,-21.94,-15.33,-1.43,73.98,1,0.00,0.00,0.00,0.00,0.00,0.00,0.00,0.00,0.00
[2025-07-07 06:13:15.227] ,3243,0,0,0.53,9.69,-1.16,-1.22,-2.25,2.75,-3.37,-21.69,12.19,-29.56,-4.02,83.01,8.72,0.14,0.06,0.00,58.29,-21.94,-15.33,-1.43,73.98,1,0.00,0.00,0.00,0.00,0.00,0.00,0.00,0.00,0.00
[2025-07-07 06:13:15.232] ,3256,0,0,0.53,9.63,-1.05,-1.34,1.00,-0.13,2.50,-21.69,12.19,-29.56,-4.00,83.00,8.75,0.14,0.06,0.00,58.33,-21.94,-15.33,-1.43,73.98,1,0.00,0.00,0.00,0.00,0.00,0.00,0.00,0.00,0.00
[2025-07-07 06:13:15.258] ,3280,0,0,0.54,9.79,-1.16,-1.34,11.75,-2.12,2.25,-21.31,11.81,-28.87,-3.72,82.95,8.80,-0.98,0.03,0.00,58.34,-17.54,-12.38,-1.42,70.76,1,0.00,0.00,0.00,0.00,0.00,0.00,0.00,0.00,0.00
[2025-07-07 06:13:15.270] ,3293,0,0,0.54,9.63,-1.14,-1.26,7.25,0.50,0.00,-21.31,11.81,-28.87,-3.63,82.96,8.80,-0.98,0.03,0.00,58.34,-17.54,-12.38,-1.42,70.76,1,0.00,0.00,0.00,0.00,0.00,0.00,0.00,0.00,0.00
[2025-07-07 06:13:15.276] ,3305,0,0,0.55,9.71,-1.07,-1.26,3.50,6.00,-0.37,-21.31,11.81,-28.87,-3.58,83.03,8.80,-0.98,0.03,0.00,58.34,-17.54,-12.38,-1.42,70.76,1,0.00,0.00,0.00,0.00,0.00,0.00,0.00,0.00,0.00
[2025-07-07 06:13:15.291] ,3320,0,0,0.55,9.63,-1.11,-1.30,8.38,1.00,7.12,-21.69,11.81,-30.31,-3.46,83.05,8.90,-0.98,0.03,0.00,58.31,-17.54,-12.38,-1.42,70.76,1,0.00,0.00,0.00,0.00,0.00,0.00,0.00,0.00,0.00
[2025-07-07 06:13:15.312] ,3333,0,0,0.56,9.67,-1.16,-1.22,8.00,-1.25,1.75,-21.69,11.81,-30.31,-3.36,83.03,8.93,-0.98,0.03,0.00,58.31,-17.54,-12.38,-1.42,70.76,1,0.00,0.00,0.00,0.00,0.00,0.00,0.00,0.00,0.00
[2025-07-07 06:13:15.312] ,3345,0,0,0.56,9.67,-1.09,-1.32,-1.50,3.25,0.00,-21.69,11.81,-30.31,-3.38,83.07,8.93,-0.98,0.03,0.00,58.31,-17.54,-12.38,-1.42,70.76,1,0.00,0.00,0.00,0.00,0.00,0.00,0.00,0.00,0.00
[2025-07-07 06:13:15.344] ,3357,0,0,0.57,9.69,-1.11,-1.26,5.87,-2.12,1.00,-21.69,11.81,-30.31,-3.30,83.05,8.94,-0.98,0.03,0.00,58.29,-17.54,-12.38,-1.42,70.76,1,0.00,0.00,0.00,0.00,0.00,0.00,0.00,0.00,0.00
[2025-07-07 06:13:15.358] ,3376,0,0,0.57,9.71,-1.09,-1.22,0.75,4.87,0.75,-21.31,11.44,-29.19,-3.29,83.14,8.95,-0.07,0.05,0.00,58.29,-14.16,-10.08,-1.40,68.24,1,0.00,0.00,0.00,0.00,0.00,0.00,0.00,0.00,0.00
[2025-07-07 06:13:15.372] ,3389,0,0,0.58,9.71,-1.16,-1.26,-6.75,4.62,-2.12,-21.31,11.44,-29.19,-3.38,83.19,8.92,-0.07,0.05,0.00,58.30,-14.16,-10.08,-1.40,68.24,1,0.00,0.00,0.00,0.00,0.00,0.00,0.00,0.00,0.00
[2025-07-07 06:13:15.382] ,3402,0,0,0.58,9.73,-1.14,-1.26,0.75,-2.62,1.50,-21.31,11.44,-29.19,-3.37,83.16,8.94,-0.07,0.05,0.00,58.30,-14.16,-10.08,-1.40,68.24,1,0.00,0.00,0.00,0.00,0.00,0.00,0.00,0.00,0.00
[2025-07-07 06:13:15.388] ,3415,0,0,0.59,9.63,-1.11,-1.36,6.12,-4.25,-3.37,-21.31,11.44,-29.19,-3.29,83.11,8.90,-0.07,0.05,0.00,58.30,-14.16,-10.08,-1.40,68.24,1,0.00,0.00,0.00,0.00,0.00,0.00,0.00,0.00,0.00
[2025-07-07 06:13:15.408] ,3431,0,0,0.59,9.75,-1.14,-1.26,3.87,-2.75,1.50,-20.94,11.44,-29.25,-3.23,83.06,8.92,-0.07,0.05,0.00,58.31,-14.16,-10.08,-1.40,68.24,1,0.00,0.00,0.00,0.00,0.00,0.00,0.00,0.00,0.00
[2025-07-07 06:13:15.420] ,3444,0,0,0.60,9.73,-1.09,-1.22,-0.13,-0.75,2.12,-20.94,11.44,-29.25,-3.23,83.05,8.95,-0.07,0.05,0.00,58.31,-14.16,-10.08,-1.40,68.24,1,0.00,0.00,0.00,0.00,0.00,0.00,0.00,0.00,0.00
[2025-07-07 06:13:15.436] ,3457,0,0,0.60,9.61,-1.07,-1.22,-1.50,3.50,0.00,-20.94,11.44,-29.25,-3.25,83.10,8.95,-0.07,0.05,0.00,58.31,-14.16,-10.08,-1.40,68.24,1,0.00,0.00,0.00,0.00,0.00,0.00,0.00,0.00,0.00
[2025-07-07 06:13:15.451] ,3475,0,0,0.61,9.67,-1.05,-1.20,2.25,-0.50,-2.75,-21.31,11.81,-29.56,-3.21,83.09,8.90,-1.14,0.03,0.00,58.31,-11.27,-8.13,-1.39,66.12,1,0.00,0.00,0.00,0.00,0.00,0.00,0.00,0.00,0.00
[2025-07-07 06:13:15.468] ,3488,0,0,0.61,9.75,-1.11,-1.30,-7.37,2.75,0.50,-21.31,11.81,-29.56,-3.30,83.12,8.91,-1.14,0.03,0.00,58.31,-11.27,-8.13,-1.39,66.12,1,0.00,0.00,0.00,0.00,0.00,0.00,0.00,0.00,0.00
[2025-07-07 06:13:15.484] ,3501,0,0,0.62,9.69,-1.22,-1.28,5.87,3.37,5.00,-21.31,11.81,-29.56,-3.22,83.17,8.97,-1.14,0.03,0.00,58.32,-11.27,-8.13,-1.39,66.12,1,0.00,0.00,0.00,0.00,0.00,0.00,0.00,0.00,0.00
[2025-07-07 06:13:15.484] ,3513,0,0,0.62,9.75,-1.14,-1.20,5.00,0.00,-4.00,-21.31,11.81,-29.56,-3.16,83.17,8.92,-1.14,0.03,0.00,58.32,-11.27,-8.13,-1.39,66.12,1,0.00,0.00,0.00,0.00,0.00,0.00,0.00,0.00,0.00
[2025-07-07 06:13:15.508] ,3529,0,0,0.63,9.65,-1.18,-1.18,-2.50,6.12,-1.00,-21.31,13.25,-29.19,-3.20,83.26,8.91,-1.14,0.03,0.00,58.32,-11.27,-8.13,-1.39,66.12,1,0.00,0.00,0.00,0.00,0.00,0.00,0.00,0.00,0.00
[2025-07-07 06:13:15.525] ,3542,0,0,0.63,9.79,-1.09,-1.26,-0.62,-1.62,-0.50,-21.31,13.25,-29.19,-3.21,83.24,8.90,-1.14,0.03,0.00,58.34,-11.27,-8.13,-1.39,66.12,1,0.00,0.00,0.00,0.00,0.00,0.00,0.00,0.00,0.00
[2025-07-07 06:13:15.533] ,3555,0,0,0.64,9.65,-1.13,-1.22,-3.50,-3.75,-1.12,-21.31,13.25,-29.19,-3.26,83.19,8.89,-1.14,0.03,0.00,58.34,-11.27,-8.13,-1.39,66.12,1,0.00,0.00,0.00,0.00,0.00,0.00,0.00,0.00,0.00
[2025-07-07 06:13:15.543] ,3574,0,0,0.64,9.73,-1.11,-1.30,-0.62,1.75,3.50,-20.94,12.19,-30.31,-3.27,83.23,8.95,-0.68,0.04,0.00,58.31,-8.99,-6.58,-1.37,64.47,1,0.00,0.00,0.00,0.00,0.00,0.00,0.00,0.00,0.00
[2025-07-07 06:13:15.564] ,3587,0,0,0.65,9.63,-1.14,-1.26,3.12,-0.88,-0.25,-20.94,12.19,-30.31,-3.23,83.22,8.95,-0.68,0.04,0.00,58.31,-8.99,-6.58,-1.37,64.47,1,0.00,0.00,0.00,0.00,0.00,0.00,0.00,0.00,0.00
[2025-07-07 06:13:15.576] ,3599,0,0,0.66,9.73,-1.14,-1.28,4.62,-2.12,3.00,-20.94,12.19,-30.31,-3.17,83.19,8.99,-0.68,0.04,0.00,58.31,-8.99,-6.58,-1.37,64.47,1,0.00,0.00,0.00,0.00,0.00,0.00,0.00,0.00,0.00
[2025-07-07 06:13:15.586] ,3612,0,0,0.66,9.75,-1.07,-1.28,6.62,-1.37,5.00,-20.94,12.19,-30.31,-3.09,83.17,9.05,-0.68,0.04,0.00,58.34,-8.99,-6.58,-1.37,64.47,1,0.00,0.00,0.00,0.00,0.00,0.00,0.00,0.00,0.00
[2025-07-07 06:13:15.596] ,3628,0,0,0.67,9.77,-1.13,-1.22,-2.62,-3.87,-4.87,-20.94,12.88,-29.94,-3.13,83.11,8.98,-0.68,0.04,0.00,58.34,-8.99,-6.58,-1.37,64.47,1,0.00,0.00,0.00,0.00,0.00,0.00,0.00,0.00,0.00
[2025-07-07 06:13:15.612] ,3641,0,0,0.67,9.71,-1.13,-1.30,-6.25,-1.25,-0.25,-20.94,12.88,-29.94,-3.21,83.10,8.97,-0.68,0.04,0.00,58.31,-8.99,-6.58,-1.37,64.47,1,0.00,0.00,0.00,0.00,0.00,0.00,0.00,0.00,0.00
[2025-07-07 06:13:15.628] ,3653,0,0,0.68,9.67,-1.05,-1.32,-2.50,-1.87,2.75,-20.94,12.88,-29.94,-3.24,83.07,9.01,-0.68,0.04,0.00,58.31,-8.99,-6.58,-1.37,64.47,1,0.00,0.00,0.00,0.00,0.00,0.00,0.00,0.00,0.00
[2025-07-07 06:13:15.643] ,3666,0,0,0.68,9.73,-1.13,-1.37,1.00,3.37,2.87,-20.94,12.88,-29.94,-3.23,83.11,9.04,-0.68,0.04,0.00,58.31,-8.99,-6.58,-1.37,64.47,1,0.00,0.00,0.00,0.00,0.00,0.00,0.00,0.00,0.00
[2025-07-07 06:13:15.659] ,3685,0,0,0.69,9.69,-1.03,-1.32,0.88,3.00,5.12,-21.31,12.19,-29.94,-3.21,83.17,9.14,0.34,0.06,0.00,58.33,-7.25,-5.39,-1.35,63.19,1,0.00,0.00,0.00,0.00,0.00,0.00,0.00,0.00,0.00
[2025-07-07 06:13:15.669] ,3698,0,0,0.69,9.69,-1.13,-1.28,1.75,-5.37,0.88,-21.31,12.19,-29.94,-3.19,83.10,9.15,0.34,0.06,0.00,58.33,-7.25,-5.39,-1.35,63.19,1,0.00,0.00,0.00,0.00,0.00,0.00,0.00,0.00,0.00
[2025-07-07 06:13:15.675] ,3711,0,0,0.70,9.73,-1.11,-1.22,2.62,-0.37,-0.25,-21.31,12.19,-29.94,-3.16,83.10,9.15,0.34,0.06,0.00,58.30,-7.25,-5.39,-1.35,63.19,1,0.00,0.00,0.00,0.00,0.00,0.00,0.00,0.00,0.00
[2025-07-07 06:13:15.691] ,3727,0,0,0.70,9.63,-1.14,-1.32,-4.12,3.37,-0.25,-22.50,12.88,-28.87,-3.22,83.15,9.14,0.34,0.06,0.00,58.30,-7.25,-5.39,-1.35,63.19,1,0.00,0.00,0.00,0.00,0.00,0.00,0.00,0.00,0.00
[2025-07-07 06:13:15.716] ,3739,0,0,0.71,9.69,-1.14,-1.22,1.37,-2.50,4.37,-22.50,12.88,-28.87,-3.21,83.12,9.20,0.34,0.06,0.00,58.30,-7.25,-5.39,-1.35,63.19,1,0.00,0.00,0.00,0.00,0.00,0.00,0.00,0.00,0.00
[2025-07-07 06:13:15.723] ,3752,0,0,0.71,9.77,-1.09,-1.24,-1.12,-1.00,0.75,-22.50,12.88,-28.87,-3.22,83.11,9.21,0.34,0.06,0.00,58.30,-7.25,-5.39,-1.35,63.19,1,0.00,0.00,0.00,0.00,0.00,0.00,0.00,0.00,0.00
[2025-07-07 06:13:15.739] ,3765,0,0,0.72,9.61,-1.09,-1.20,2.00,-1.87,1.00,-22.50,12.88,-28.87,-3.20,83.08,9.22,0.34,0.06,0.00,58.30,-7.25,-5.39,-1.35,63.19,1,0.00,0.00,0.00,0.00,0.00,0.00,0.00,0.00,0.00
[2025-07-07 06:13:15.758] ,3788,0,0,0.72,9.69,-1.11,-1.32,2.00,-4.62,8.13,-21.69,12.88,-29.19,-3.15,82.97,9.41,-1.09,0.03,0.00,58.33,-5.66,-4.30,-1.32,62.04,1,0.00,0.00,0.00,0.00,0.00,0.00,0.00,0.00,0.00
[2025-07-07 06:13:15.771] ,3801,0,0,0.73,9.71,-1.09,-1.32,-5.25,8.75,-2.00,-21.69,12.88,-29.19,-3.21,83.08,9.39,-1.09,0.03,0.00,58.33,-5.66,-4.30,-1.32,62.04,1,0.00,0.00,0.00,0.00,0.00,0.00,0.00,0.00,0.00
[2025-07-07 06:13:15.787] ,3813,0,0,0.73,9.77,-1.11,-1.22,11.25,1.87,5.87,-21.69,12.88,-29.19,-3.08,83.11,9.46,-1.09,0.03,0.00,58.31,-5.66,-4.30,-1.32,62.04,1,0.00,0.00,0.00,0.00,0.00,0.00,0.00,0.00,0.00
[2025-07-07 06:13:15.787] ,3829,0,0,0.74,9.65,-1.14,-1.24,-2.12,-4.00,-1.50,-21.31,12.50,-29.56,-3.11,83.04,9.44,-1.09,0.03,0.00,58.29,-5.66,-4.30,-1.32,62.04,1,0.00,0.00,0.00,0.00,0.00,0.00,0.00,0.00,0.00
[2025-07-07 06:13:15.808] ,3841,0,0,0.74,9.73,-1.11,-1.30,1.37,1.87,-2.75,-21.31,12.50,-29.56,-3.09,83.07,9.40,-1.09,0.03,0.00,58.29,-5.66,-4.30,-1.32,62.04,1,0.00,0.00,0.00,0.00,0.00,0.00,0.00,0.00,0.00
[2025-07-07 06:13:15.829] ,3853,0,0,0.75,9.67,-1.09,-1.22,1.50,2.62,-2.87,-21.31,12.50,-29.56,-3.07,83.10,9.37,-1.09,0.03,0.00,58.25,-5.66,-4.30,-1.32,62.04,1,0.00,0.00,0.00,0.00,0.00,0.00,0.00,0.00,0.00
[2025-07-07 06:13:15.839] ,3866,0,0,0.75,9.71,-1.11,-1.22,-2.75,-1.12,2.50,-21.31,12.50,-29.56,-3.10,83.09,9.40,-1.09,0.03,0.00,58.25,-5.66,-4.30,-1.32,62.04,1,0.00,0.00,0.00,0.00,0.00,0.00,0.00,0.00,0.00
[2025-07-07 06:13:15.858] ,3885,0,0,0.76,9.75,-1.16,-1.34,4.25,-0.50,3.12,-21.31,11.44,-28.87,-3.02,83.08,9.46,0.22,0.05,0.00,58.28,-4.65,-3.58,-1.30,61.27,1,0.00,0.00,0.00,0.00,0.00,0.00,0.00,0.00,0.00
[2025-07-07 06:13:15.868] ,3898,0,0,0.76,9.71,-1.22,-1.28,3.00,0.62,2.87,-21.31,11.44,-28.87,-2.98,83.09,9.49,0.22,0.05,0.00,58.28,-4.65,-3.58,-1.30,61.27,1,0.00,0.00,0.00,0.00,0.00,0.00,0.00,0.00,0.00
[2025-07-07 06:13:15.879] ,3910,0,0,0.77,9.77,-1.05,-1.18,-2.87,5.25,-3.62,-21.31,11.44,-28.87,-3.02,83.15,9.45,0.22,0.05,0.00,58.28,-4.65,-3.58,-1.30,61.27,1,0.00,0.00,0.00,0.00,0.00,0.00,0.00,0.00,0.00
[2025-07-07 06:13:15.895] ,3926,0,0,0.77,9.61,-1.14,-1.18,-8.75,1.87,-2.25,-22.87,11.81,-28.87,-3.15,83.18,9.41,0.22,0.05,0.00,58.36,-4.65,-3.58,-1.30,61.27,1,0.00,0.00,0.00,0.00,0.00,0.00,0.00,0.00,0.00
[2025-07-07 06:13:15.911] ,3939,0,0,0.78,9.77,-1.09,-1.20,-0.37,-7.62,4.00,-22.87,11.81,-28.87,-3.16,83.08,9.47,0.22,0.05,0.00,58.36,-4.65,-3.58,-1.30,61.27,1,0.00,0.00,0.00,0.00,0.00,0.00,0.00,0.00,0.00
[2025-07-07 06:13:15.933] ,3951,0,0,0.78,9.69,-1.05,-1.28,-1.37,-2.12,1.50,-22.87,11.81,-28.87,-3.17,83.05,9.49,0.22,0.05,0.00,58.34,-4.65,-3.58,-1.30,61.27,1,0.00,0.00,0.00,0.00,0.00,0.00,0.00,0.00,0.00
[2025-07-07 06:13:15.943] ,3964,0,0,0.79,9.73,-1.14,-1.26,3.12,4.00,0.37,-22.87,11.81,-28.87,-3.14,83.10,9.49,0.22,0.05,0.00,58.31,-4.65,-3.58,-1.30,61.27,1,0.00,0.00,0.00,0.00,0.00,0.00,0.00,0.00,0.00
[2025-07-07 06:13:15.958] ,3983,0,0,0.79,9.86,-1.16,-1.26,1.50,-0.13,-4.00,-22.12,12.19,-29.19,-3.11,83.10,9.42,0.39,0.05,0.00,58.31,-3.58,-2.86,-1.25,60.55,1,0.00,0.00,0.00,0.00,0.00,0.00,0.00,0.00,0.00
[2025-07-07 06:13:15.974] ,3996,0,0,0.80,9.59,-1.05,-1.30,-1.62,1.50,-0.13,-22.12,12.19,-29.19,-3.13,83.12,9.42,0.39,0.05,0.00,58.35,-3.58,-2.86,-1.25,60.55,1,0.00,0.00,0.00,0.00,0.00,0.00,0.00,0.00,0.00
[2025-07-07 06:13:15.974] ,4008,0,0,0.80,9.73,-1.20,-1.26,8.63,1.87,1.25,-22.12,12.19,-29.19,-3.02,83.15,9.43,0.39,0.05,0.00,58.35,-3.58,-2.86,-1.25,60.55,1,0.00,0.00,0.00,0.00,0.00,0.00,0.00,0.00,0.00
[2025-07-07 06:13:15.990] ,4024,0,0,0.81,9.63,-1.14,-1.32,2.25,-2.62,1.75,-21.69,12.50,-28.87,-2.98,83.11,9.46,0.39,0.05,0.00,58.30,-3.58,-2.86,-1.25,60.55,1,0.00,0.00,0.00,0.00,0.00,0.00,0.00,0.00,0.00
[2025-07-07 06:13:16.008] ,4036,0,0,0.81,9.75,-1.14,-1.28,-3.12,-6.25,9.00,-21.69,12.50,-28.87,-3.02,83.03,9.57,0.39,0.05,0.00,58.30,-3.58,-2.86,-1.25,60.55,1,0.00,0.00,0.00,0.00,0.00,0.00,0.00,0.00,0.00
[2025-07-07 06:13:16.021] ,4049,0,0,0.82,9.77,-1.13,-1.26,-8.25,5.87,-0.62,-21.69,12.50,-28.87,-3.12,83.10,9.56,0.39,0.05,0.00,58.30,-3.58,-2.86,-1.25,60.55,1,0.00,0.00,0.00,0.00,0.00,0.00,0.00,0.00,0.00
[2025-07-07 06:13:16.037] ,4061,0,0,0.82,9.65,-1.07,-1.24,0.00,5.37,-4.62,-21.69,12.50,-28.87,-3.12,83.17,9.50,0.39,0.05,0.00,58.28,-3.58,-2.86,-1.25,60.55,1,0.00,0.00,0.00,0.00,0.00,0.00,0.00,0.00,0.00
[2025-07-07 06:13:16.053] ,4081,0,0,0.83,9.61,-1.11,-1.24,-7.75,5.50,7.25,-21.69,12.88,-29.19,-3.27,83.27,9.64,-0.75,0.03,0.00,58.25,-2.96,-2.41,-1.23,60.09,1,0.00,0.00,0.00,0.00,0.00,0.00,0.00,0.00,0.00
[2025-07-07 06:13:16.070] ,4094,0,0,0.83,9.67,-1.22,-1.26,-6.87,8.13,-5.37,-21.69,12.88,-29.19,-3.36,83.38,9.57,-0.75,0.03,0.00,58.29,-2.96,-2.41,-1.23,60.09,1,0.00,0.00,0.00,0.00,0.00,0.00,0.00,0.00,0.00
[2025-07-07 06:13:16.083] ,4106,0,0,0.84,9.71,-1.16,-1.22,9.25,2.50,1.00,-21.69,12.88,-29.19,-3.24,83.41,9.58,-0.75,0.03,0.00,58.32,-2.96,-2.41,-1.23,60.09,1,0.00,0.00,0.00,0.00,0.00,0.00,0.00,0.00,0.00
[2025-07-07 06:13:16.095] ,4121,0,0,0.84,9.73,-1.09,-1.28,-0.25,2.50,-2.87,-20.50,11.81,-29.94,-3.24,83.45,9.54,-0.75,0.03,0.00,58.32,-2.96,-2.41,-1.23,60.09,1,0.00,0.00,0.00,0.00,0.00,0.00,0.00,0.00,0.00
[2025-07-07 06:13:16.112] ,4134,0,0,0.85,9.67,-1.11,-1.36,-8.25,0.00,1.37,-20.50,11.81,-29.94,-3.35,83.45,9.56,-0.75,0.03,0.00,58.29,-2.96,-2.41,-1.23,60.09,1,0.00,0.00,0.00,0.00,0.00,0.00,0.00,0.00,0.00
[2025-07-07 06:13:16.122] ,4147,0,0,0.85,9.79,-1.16,-1.26,6.25,4.87,3.87,-20.50,11.81,-29.94,-3.27,83.51,9.60,-0.75,0.03,0.00,58.28,-2.96,-2.41,-1.23,60.09,1,0.00,0.00,0.00,0.00,0.00,0.00,0.00,0.00,0.00
[2025-07-07 06:13:16.138] ,4160,0,0,0.86,9.77,-1.14,-1.26,-8.38,7.25,-2.00,-20.50,11.81,-29.94,-3.38,83.60,9.58,-0.75,0.03,0.00,58.28,-2.96,-2.41,-1.23,60.09,1,0.00,0.00,0.00,0.00,0.00,0.00,0.00,0.00,0.00
[2025-07-07 06:13:16.153] ,4179,0,0,0.86,9.81,-1.09,-1.26,-2.87,-3.75,1.62,-21.69,12.88,-29.19,-3.44,83.53,9.61,0.76,0.06,0.00,58.29,-2.38,-2.00,-1.19,59.69,1,0.00,0.00,0.00,0.00,0.00,0.00,0.00,0.00,0.00
[2025-07-07 06:13:16.169] ,4191,0,0,0.87,9.75,-1.20,-1.32,-0.50,3.37,-12.88,-21.69,12.88,-29.19,-3.45,83.58,9.44,0.76,0.06,0.00,58.29,-2.38,-2.00,-1.19,59.69,1,0.00,0.00,0.00,0.00,0.00,0.00,0.00,0.00,0.00
[2025-07-07 06:13:16.179] ,4203,0,0,0.88,9.73,-1.20,-1.20,7.50,-2.00,3.12,-21.69,12.88,-29.19,-3.36,83.55,9.48,0.76,0.06,0.00,58.35,-2.38,-2.00,-1.19,59.69,1,0.00,0.00,0.00,0.00,0.00,0.00,0.00,0.00,0.00
[2025-07-07 06:13:16.185] ,4217,0,0,0.88,9.71,-1.11,-1.24,0.25,-3.75,-3.00,-21.69,12.88,-29.19,-3.35,83.51,9.44,0.76,0.06,0.00,58.34,-2.38,-2.00,-1.19,59.69,1,0.00,0.00,0.00,0.00,0.00,0.00,0.00,0.00,0.00
[2025-07-07 06:13:16.210] ,4232,0,0,0.89,9.69,-1.16,-1.32,2.25,3.37,-1.00,-20.94,12.19,-29.56,-3.32,83.56,9.43,0.76,0.06,0.00,58.34,-2.38,-2.00,-1.19,59.69,1,0.00,0.00,0.00,0.00,0.00,0.00,0.00,0.00,0.00
[2025-07-07 06:13:16.212] ,4245,0,0,0.89,9.71,-1.16,-1.24,3.00,-2.00,3.25,-20.94,12.19,-29.56,-3.28,83.54,9.47,0.76,0.06,0.00,58.31,-2.38,-2.00,-1.19,59.69,1,0.00,0.00,0.00,0.00,0.00,0.00,0.00,0.00,0.00
[2025-07-07 06:13:16.234] ,4257,0,0,0.90,9.67,-1.11,-1.26,-5.00,3.12,-2.50,-20.94,12.19,-29.56,-3.34,83.58,9.44,0.76,0.06,0.00,58.31,-2.38,-2.00,-1.19,59.69,1,0.00,0.00,0.00,0.00,0.00,0.00,0.00,0.00,0.00
[2025-07-07 06:13:16.246] ,4281,0,0,0.90,9.84,-1.11,-1.26,-3.12,8.13,0.88,-21.31,11.81,-30.69,-3.41,83.77,9.46,-0.65,0.03,0.00,58.30,-1.84,-1.64,-1.13,59.35,1,0.00,0.00,0.00,0.00,0.00,0.00,0.00,0.00,0.00
[2025-07-07 06:13:16.259] ,4293,0,0,0.91,9.71,-1.13,-1.24,6.62,-3.37,0.13,-21.31,11.81,-30.69,-3.33,83.72,9.46,-0.65,0.03,0.00,58.30,-1.84,-1.64,-1.13,59.35,1,0.00,0.00,0.00,0.00,0.00,0.00,0.00,0.00,0.00
[2025-07-07 06:13:16.275] ,4307,0,0,0.91,9.71,-1.09,-1.36,3.50,-2.50,-1.50,-21.31,11.81,-30.69,-3.29,83.69,9.44,-0.65,0.03,0.00,58.31,-1.84,-1.64,-1.13,59.35,1,0.00,0.00,0.00,0.00,0.00,0.00,0.00,0.00,0.00
[2025-07-07 06:13:16.291] ,4322,0,0,0.92,9.81,-1.07,-1.20,3.62,2.50,0.75,-20.94,11.06,-29.19,-3.23,83.73,9.45,-0.65,0.03,0.00,58.35,-1.84,-1.64,-1.13,59.35,1,0.00,0.00,0.00,0.00,0.00,0.00,0.00,0.00,0.00
[2025-07-07 06:13:16.294] ,4335,0,0,0.92,9.73,-1.03,-1.26,-9.88,4.00,-5.87,-20.94,11.06,-29.19,-3.36,83.78,9.38,-0.65,0.03,0.00,58.35,-1.84,-1.64,-1.13,59.35,1,0.00,0.00,0.00,0.00,0.00,0.00,0.00,0.00,0.00
[2025-07-07 06:13:16.320] ,4347,0,0,0.93,9.63,-1.05,-1.22,0.00,-9.25,-3.12,-20.94,11.06,-29.19,-3.36,83.67,9.34,-0.65,0.03,0.00,58.31,-1.84,-1.64,-1.13,59.35,1,0.00,0.00,0.00,0.00,0.00,0.00,0.00,0.00,0.00
[2025-07-07 06:13:16.334] ,4360,0,0,0.93,9.63,-1.11,-1.32,6.12,-3.00,-0.88,-20.94,11.06,-29.19,-3.28,83.63,9.33,-0.65,0.03,0.00,58.26,-1.84,-1.64,-1.13,59.35,1,0.00,0.00,0.00,0.00,0.00,0.00,0.00,0.00,0.00
[2025-07-07 06:13:16.334] ,4380,0,0,0.94,9.63,-1.13,-1.28,-8.00,-0.75,-4.50,-21.31,12.19,-28.87,-3.43,83.61,9.24,-1.27,0.02,0.00,58.27,-1.59,-1.43,-1.11,59.14,1,0.00,0.00,0.00,0.00,0.00,0.00,0.00,0.00,0.00
[2025-07-07 06:13:16.358] ,4392,0,0,0.94,9.82,-1.16,-1.22,7.75,-1.25,-1.75,-21.31,12.19,-28.87,-3.33,83.60,9.22,-1.27,0.02,0.00,58.33,-1.59,-1.43,-1.11,59.14,1,0.00,0.00,0.00,0.00,0.00,0.00,0.00,0.00,0.00
[2025-07-07 06:13:16.377] ,4404,0,0,0.95,9.67,-1.13,-1.30,3.25,-2.12,5.62,-21.31,12.19,-28.87,-3.29,83.57,9.29,-1.27,0.02,0.00,58.33,-1.59,-1.43,-1.11,59.14,1,0.00,0.00,0.00,0.00,0.00,0.00,0.00,0.00,0.00
[2025-07-07 06:13:16.382] ,4417,0,0,0.95,9.67,-1.16,-1.22,1.37,1.00,4.12,-21.31,12.19,-28.87,-3.27,83.58,9.34,-1.27,0.02,0.00,58.33,-1.59,-1.43,-1.11,59.14,1,0.00,0.00,0.00,0.00,0.00,0.00,0.00,0.00,0.00
[2025-07-07 06:13:16.398] ,4433,0,0,0.96,9.63,-1.14,-1.26,-3.50,2.12,0.25,-21.31,12.88,-29.19,-3.33,83.62,9.34,-1.27,0.02,0.00,58.32,-1.59,-1.43,-1.11,59.14,1,0.00,0.00,0.00,0.00,0.00,0.00,0.00,0.00,0.00
[2025-07-07 06:13:16.414] ,4446,0,0,0.96,9.67,-1.14,-1.24,5.37,-2.50,2.25,-21.31,12.88,-29.19,-3.26,83.58,9.37,-1.27,0.02,0.00,58.31,-1.59,-1.43,-1.11,59.14,1,0.00,0.00,0.00,0.00,0.00,0.00,0.00,0.00,0.00
[2025-07-07 06:13:16.430] ,4459,0,0,0.97,9.75,-1.05,-1.26,-0.62,3.75,5.25,-21.31,12.88,-29.19,-3.26,83.63,9.44,-1.27,0.02,0.00,58.30,-1.59,-1.43,-1.11,59.14,1,0.00,0.00,0.00,0.00,0.00,0.00,0.00,0.00,0.00
[2025-07-07 06:13:16.434] ,4478,0,0,0.97,9.73,-1.14,-1.32,0.00,0.13,-0.13,-22.87,11.06,-29.56,-3.26,83.63,9.44,0.56,0.05,0.00,58.30,-1.19,-1.15,-1.03,58.90,1,0.00,0.00,0.00,0.00,0.00,0.00,0.00,0.00,0.00
[2025-07-07 06:13:16.458] ,4490,0,0,0.98,9.67,-1.16,-1.36,7.62,-5.00,1.00,-22.87,11.06,-29.56,-3.17,83.57,9.45,0.56,0.05,0.00,58.27,-1.19,-1.15,-1.03,58.90,1,0.00,0.00,0.00,0.00,0.00,0.00,0.00,0.00,0.00
[2025-07-07 06:13:16.472] ,4503,0,0,0.98,9.73,-1.05,-1.26,4.00,2.87,-0.37,-22.87,11.06,-29.56,-3.12,83.61,9.44,0.56,0.05,0.00,58.26,-1.19,-1.15,-1.03,58.90,1,0.00,0.00,0.00,0.00,0.00,0.00,0.00,0.00,0.00
[2025-07-07 06:13:16.477] ,4516,0,0,0.99,9.71,-1.13,-1.26,1.00,-6.00,-3.62,-22.87,11.06,-29.56,-3.11,83.53,9.40,0.56,0.05,0.00,58.29,-1.19,-1.15,-1.03,58.90,1,0.00,0.00,0.00,0.00,0.00,0.00,0.00,0.00,0.00
[2025-07-07 06:13:16.493] ,4531,0,0,0.99,9.58,-1.14,-1.22,-4.12,-1.25,-1.50,-21.69,12.50,-29.94,-3.17,83.51,9.38,0.56,0.05,0.00,58.31,-1.19,-1.15,-1.03,58.90,1,0.00,0.00,0.00,0.00,0.00,0.00,0.00,0.00,0.00
[2025-07-07 06:13:16.509] ,4544,0,0,1.00,9.61,-1.13,-1.32,1.62,-0.50,-1.87,-21.69,12.50,-29.94,-3.15,83.51,9.35,0.56,0.05,0.00,58.31,-1.19,-1.15,-1.03,58.90,1,0.00,0.00,0.00,0.00,0.00,0.00,0.00,0.00,0.00
[2025-07-07 06:13:16.525] ,4556,0,0,1.00,9.63,-1.13,-1.28,-7.37,1.87,-1.50,-21.69,12.50,-29.94,-3.24,83.53,9.33,0.56,0.05,0.00,58.31,-1.19,-1.15,-1.03,58.90,1,0.00,0.00,0.00,0.00,0.00,0.00,0.00,0.00,0.00
[2025-07-07 06:13:16.544] ,4575,0,0,1.01,9.65,-1.22,-1.24,-0.37,2.50,-4.50,-21.31,11.06,-29.56,-3.25,83.58,9.25,-0.79,0.03,0.00,58.33,-0.92,-0.96,-0.95,58.75,1,0.00,0.00,0.00,0.00,0.00,0.00,0.00,0.00,0.00
[2025-07-07 06:13:16.558] ,4588,0,0,1.01,9.63,-1.09,-1.32,1.00,3.12,1.12,-21.31,11.06,-29.56,-3.24,83.62,9.26,-0.79,0.03,0.00,58.30,-0.92,-0.96,-0.95,58.75,1,0.00,0.00,0.00,0.00,0.00,0.00,0.00,0.00,0.00
[2025-07-07 06:13:16.561] ,4601,0,0,1.02,9.75,-1.14,-1.18,-10.25,5.25,-2.37,-21.31,11.06,-29.56,-3.37,83.68,9.23,-0.79,0.03,0.00,58.29,-0.92,-0.96,-0.95,58.75,1,0.00,0.00,0.00,0.00,0.00,0.00,0.00,0.00,0.00
[2025-07-07 06:13:16.583] ,4614,0,0,1.02,9.77,-1.20,-1.22,4.87,3.37,-1.12,-21.31,11.06,-29.56,-3.30,83.73,9.22,-0.79,0.03,0.00,58.29,-0.92,-0.96,-0.95,58.75,1,0.00,0.00,0.00,0.00,0.00,0.00,0.00,0.00,0.00
[2025-07-07 06:13:16.594] ,4629,0,0,1.03,9.59,-1.14,-1.20,6.50,1.25,1.12,-21.31,11.81,-29.56,-3.20,83.75,9.24,-0.79,0.03,0.00,58.31,-0.92,-0.96,-0.95,58.75,1,0.00,0.00,0.00,0.00,0.00,0.00,0.00,0.00,0.00
[2025-07-07 06:13:16.610] ,4642,0,0,1.03,9.71,-1.20,-1.20,7.12,-6.75,3.62,-21.31,11.81,-29.56,-3.11,83.66,9.28,-0.79,0.03,0.00,58.29,-0.92,-0.96,-0.95,58.75,1,0.00,0.00,0.00,0.00,0.00,0.00,0.00,0.00,0.00
[2025-07-07 06:13:16.628] ,4655,0,0,1.04,9.77,-1.14,-1.28,-1.62,-7.62,-3.62,-21.31,11.81,-29.56,-3.13,83.56,9.24,-0.79,0.03,0.00,58.29,-0.92,-0.96,-0.95,58.75,1,0.00,0.00,0.00,0.00,0.00,0.00,0.00,0.00,0.00
[2025-07-07 06:13:16.642] ,4667,0,0,1.04,9.75,-1.13,-1.37,8.88,3.37,0.62,-21.31,11.81,-29.56,-3.02,83.61,9.25,-0.79,0.03,0.00,58.29,-0.92,-0.96,-0.95,58.75,1,0.00,0.00,0.00,0.00,0.00,0.00,0.00,0.00,0.00
[2025-07-07 06:13:16.655] ,4685,0,0,1.05,9.77,-1.14,-1.28,2.50,3.50,3.75,-21.69,12.50,-29.94,-2.97,83.67,9.31,0.70,0.05,0.00,58.31,-0.79,-0.85,-0.93,58.65,1,0.00,0.00,0.00,0.00,0.00,0.00,0.00,0.00,0.00
[2025-07-07 06:13:16.670] ,4698,0,0,1.05,9.79,-1.11,-1.26,0.00,-3.00,-4.00,-21.69,12.50,-29.94,-2.97,83.63,9.26,0.70,0.05,0.00,58.31,-0.79,-0.85,-0.93,58.65,1,0.00,0.00,0.00,0.00,0.00,0.00,0.00,0.00,0.00
[2025-07-07 06:13:16.677] ,4711,0,0,1.06,9.67,-1.14,-1.26,-6.37,5.12,-0.25,-21.69,12.50,-29.94,-3.06,83.70,9.26,0.70,0.05,0.00,58.31,-0.79,-0.85,-0.93,58.65,1,0.00,0.00,0.00,0.00,0.00,0.00,0.00,0.00,0.00
[2025-07-07 06:13:16.693] ,4727,0,0,1.06,9.61,-1.09,-1.20,-1.25,-1.37,1.50,-22.87,11.81,-29.94,-3.08,83.67,9.28,0.70,0.05,0.00,58.29,-0.79,-0.85,-0.93,58.65,1,0.00,0.00,0.00,0.00,0.00,0.00,0.00,0.00,0.00
[2025-07-07 06:13:16.709] ,4740,0,0,1.07,9.71,-1.20,-1.36,-0.37,-0.75,2.00,-22.87,11.81,-29.94,-3.08,83.67,9.31,0.70,0.05,0.00,58.29,-0.79,-0.85,-0.93,58.65,1,0.00,0.00,0.00,0.00,0.00,0.00,0.00,0.00,0.00
[2025-07-07 06:13:16.719] ,4753,0,0,1.07,9.71,-1.14,-1.30,5.37,3.37,-9.63,-22.87,11.81,-29.94,-3.01,83.71,9.18,0.70,0.05,0.00,58.23,-0.79,-0.85,-0.93,58.65,1,0.00,0.00,0.00,0.00,0.00,0.00,0.00,0.00,0.00
[2025-07-07 06:13:16.735] ,4767,0,0,1.08,9.65,-1.11,-1.28,2.12,1.12,-0.13,-22.87,11.81,-29.94,-2.98,83.73,9.18,0.70,0.05,0.00,58.24,-0.79,-0.85,-0.93,58.65,1,0.00,0.00,0.00,0.00,0.00,0.00,0.00,0.00,0.00
[2025-07-07 06:13:16.741] ,4790,0,0,1.09,9.65,-1.09,-1.18,3.00,-2.87,-6.37,-20.94,11.81,-28.50,-2.91,83.66,9.02,-0.67,0.03,0.00,58.24,-0.72,-0.77,-0.93,58.57,1,0.00,0.00,0.00,0.00,0.00,0.00,0.00,0.00,0.00
[2025-07-07 06:13:16.762] ,4803,0,0,1.09,9.82,-1.20,-1.22,-2.25,-8.75,-0.62,-20.94,11.81,-28.50,-2.94,83.55,9.01,-0.67,0.03,0.00,58.26,-0.72,-0.77,-0.93,58.57,1,0.00,0.00,0.00,0.00,0.00,0.00,0.00,0.00,0.00
[2025-07-07 06:13:16.772] ,4816,0,0,1.10,9.79,-1.09,-1.24,6.62,-3.75,10.38,-20.94,11.81,-28.50,-2.85,83.50,9.15,-0.67,0.03,0.00,58.25,-0.72,-0.77,-0.93,58.57,1,0.00,0.00,0.00,0.00,0.00,0.00,0.00,0.00,0.00
[2025-07-07 06:13:16.787] ,4831,0,0,1.10,9.69,-1.09,-1.18,-10.38,-0.88,-0.62,-21.31,11.81,-29.19,-3.01,83.48,9.14,-0.67,0.03,0.00,58.22,-0.72,-0.77,-0.93,58.57,1,0.00,0.00,0.00,0.00,0.00,0.00,0.00,0.00,0.00
[2025-07-07 06:13:16.804] ,4844,0,0,1.11,9.65,-1.13,-1.28,7.00,-2.25,-2.12,-21.31,11.81,-29.19,-2.92,83.45,9.11,-0.67,0.03,0.00,58.22,-0.72,-0.77,-0.93,58.57,1,0.00,0.00,0.00,0.00,0.00,0.00,0.00,0.00,0.00
[2025-07-07 06:13:16.808] ,4856,0,0,1.11,9.65,-1.01,-1.30,6.87,-4.25,0.13,-21.31,11.81,-29.19,-2.84,83.40,9.11,-0.67,0.03,0.00,58.22,-0.72,-0.77,-0.93,58.57,1,0.00,0.00,0.00,0.00,0.00,0.00,0.00,0.00,0.00
[2025-07-07 06:13:16.830] ,4875,0,0,1.12,9.73,-1.16,-1.37,9.38,-2.75,-5.37,-21.69,11.81,-29.56,-2.66,83.35,9.01,-0.61,0.03,0.00,58.23,-0.62,-0.68,-0.91,58.49,1,0.00,0.00,0.00,0.00,0.00,0.00,0.00,0.00,0.00
[2025-07-07 06:13:16.840] ,4888,0,0,1.12,9.73,-1.13,-1.22,1.00,-5.87,1.87,-21.69,11.81,-29.56,-2.65,83.28,9.04,-0.61,0.03,0.00,58.26,-0.62,-0.68,-0.91,58.49,1,0.00,0.00,0.00,0.00,0.00,0.00,0.00,0.00,0.00
[2025-07-07 06:13:16.858] ,4900,0,0,1.13,9.73,-1.14,-1.24,-0.75,2.12,-1.37,-21.69,11.81,-29.56,-2.66,83.30,9.02,-0.61,0.03,0.00,58.26,-0.62,-0.68,-0.91,58.49,1,0.00,0.00,0.00,0.00,0.00,0.00,0.00,0.00,0.00
[2025-07-07 06:13:16.864] ,4913,0,0,1.13,9.69,-1.07,-1.34,0.13,-7.62,-2.37,-21.69,11.81,-29.56,-2.66,83.21,8.99,-0.61,0.03,0.00,58.30,-0.62,-0.68,-0.91,58.49,1,0.00,0.00,0.00,0.00,0.00,0.00,0.00,0.00,0.00
[2025-07-07 06:13:16.880] ,4928,0,0,1.14,9.84,-1.16,-1.16,3.00,-2.25,-1.12,-20.94,12.19,-29.94,-2.61,83.17,8.97,-0.61,0.03,0.00,58.30,-0.62,-0.68,-0.91,58.49,1,0.00,0.00,0.00,0.00,0.00,0.00,0.00,0.00,0.00
[2025-07-07 06:13:16.896] ,4941,0,0,1.14,9.73,-1.14,-1.20,-2.12,5.50,-6.62,-20.94,12.19,-29.94,-2.64,83.24,8.89,-0.61,0.03,0.00,58.29,-0.62,-0.68,-0.91,58.49,1,0.00,0.00,0.00,0.00,0.00,0.00,0.00,0.00,0.00
[2025-07-07 06:13:16.911] ,4953,0,0,1.15,9.81,-1.24,-1.28,1.25,5.87,0.00,-20.94,12.19,-29.94,-2.62,83.32,8.89,-0.61,0.03,0.00,58.29,-0.62,-0.68,-0.91,58.49,1,0.00,0.00,0.00,0.00,0.00,0.00,0.00,0.00,0.00
[2025-07-07 06:13:16.927] ,4966,0,0,1.15,9.73,-1.13,-1.30,-0.25,-2.50,5.00,-20.94,12.19,-29.94,-2.62,83.29,8.95,-0.61,0.03,0.00,58.30,-0.62,-0.68,-0.91,58.49,1,0.00,0.00,0.00,0.00,0.00,0.00,0.00,0.00,0.00
[2025-07-07 06:13:16.943] ,4985,0,0,1.16,9.81,-1.11,-1.22,-2.62,-1.25,-1.87,-21.69,11.81,-28.50,-2.68,83.26,8.92,0.10,0.04,0.00,58.31,-0.35,-0.51,-0.67,58.41,1,0.00,0.00,0.00,0.00,0.00,0.00,0.00,0.00,0.00
[2025-07-07 06:13:16.943] ,4998,0,0,1.16,9.69,-1.09,-1.26,-2.62,1.50,4.00,-21.69,11.81,-28.50,-2.71,83.28,8.97,0.10,0.04,0.00,58.33,-0.35,-0.51,-0.67,58.41,1,0.00,0.00,0.00,0.00,0.00,0.00,0.00,0.00,0.00
[2025-07-07 06:13:16.969] ,5010,0,0,1.17,9.71,-1.16,-1.24,4.62,-2.50,5.62,-21.69,11.81,-28.50,-2.65,83.25,9.04,0.10,0.04,0.00,58.32,-0.35,-0.51,-0.67,58.41,1,0.00,0.00,0.00,0.00,0.00,0.00,0.00,0.00,0.00
[2025-07-07 06:13:16.983] ,5026,0,0,1.17,9.73,-1.14,-1.26,-9.25,4.25,1.37,-20.94,11.81,-29.19,-2.79,83.31,9.06,0.10,0.04,0.00,58.32,-0.35,-0.51,-0.67,58.41,1,0.00,0.00,0.00,0.00,0.00,0.00,0.00,0.00,0.00
[2025-07-07 06:13:16.999] ,5039,0,0,1.18,9.75,-1.07,-1.22,11.13,-9.25,6.12,-20.94,11.81,-29.19,-2.65,83.20,9.14,0.10,0.04,0.00,58.33,-0.35,-0.51,-0.67,58.41,1,0.00,0.00,0.00,0.00,0.00,0.00,0.00,0.00,0.00
[2025-07-07 06:13:17.010] ,5052,0,0,1.18,9.75,-1.07,-1.30,4.00,4.37,-1.75,-20.94,11.81,-29.19,-2.60,83.25,9.12,0.10,0.04,0.00,58.33,-0.35,-0.51,-0.67,58.41,1,0.00,0.00,0.00,0.00,0.00,0.00,0.00,0.00,0.00
[2025-07-07 06:13:17.026] ,5064,0,0,1.19,9.65,-1.05,-1.28,6.62,-1.87,2.25,-20.94,11.81,-29.19,-2.51,83.23,9.14,0.10,0.04,0.00,58.23,-0.35,-0.51,-0.67,58.41,1,0.00,0.00,0.00,0.00,0.00,0.00,0.00,0.00,0.00
[2025-07-07 06:13:17.042] ,5083,0,0,1.19,9.71,-1.11,-1.30,-4.12,-5.12,-5.62,-22.12,11.81,-29.56,-2.59,83.13,9.04,-0.93,0.02,0.00,58.22,-0.39,-0.51,-0.77,58.39,1,0.00,0.00,0.00,0.00,0.00,0.00,0.00,0.00,0.00
[2025-07-07 06:13:17.060] ,5096,0,0,1.20,9.75,-1.13,-1.22,4.50,0.88,3.75,-22.12,11.81,-29.56,-2.53,83.14,9.09,-0.93,0.02,0.00,58.22,-0.39,-0.51,-0.77,58.39,1,0.00,0.00,0.00,0.00,0.00,0.00,0.00,0.00,0.00
[2025-07-07 06:13:17.076] ,5108,0,0,1.20,9.81,-1.16,-1.30,3.00,2.75,-5.75,-22.12,11.81,-29.56,-2.50,83.17,9.01,-0.93,0.02,0.00,58.28,-0.39,-0.51,-0.77,58.39,1,0.00,0.00,0.00,0.00,0.00,0.00,0.00,0.00,0.00
[2025-07-07 06:13:17.076] ,5124,0,0,1.21,9.69,-1.07,-1.22,-0.88,-0.62,-1.25,-21.69,12.19,-28.50,-2.51,83.17,8.99,-0.93,0.02,0.00,58.29,-0.39,-0.51,-0.77,58.39,1,0.00,0.00,0.00,0.00,0.00,0.00,0.00,0.00,0.00
[2025-07-07 06:13:17.097] ,5137,0,0,1.21,9.61,-1.16,-1.26,2.12,0.25,0.62,-21.69,12.19,-28.50,-2.48,83.17,9.00,-0.93,0.02,0.00,58.29,-0.39,-0.51,-0.77,58.39,1,0.00,0.00,0.00,0.00,0.00,0.00,0.00,0.00,0.00
[2025-07-07 06:13:17.112] ,5150,0,0,1.22,9.71,-1.11,-1.28,2.00,-1.25,-4.87,-21.69,12.19,-28.50,-2.46,83.15,8.94,-0.93,0.02,0.00,58.30,-0.39,-0.51,-0.77,58.39,1,0.00,0.00,0.00,0.00,0.00,0.00,0.00,0.00,0.00
[2025-07-07 06:13:17.128] ,5162,0,0,1.22,9.71,-1.16,-1.18,-6.50,0.62,0.37,-21.69,12.19,-28.50,-2.54,83.16,8.94,-0.93,0.02,0.00,58.30,-0.39,-0.51,-0.77,58.39,1,0.00,0.00,0.00,0.00,0.00,0.00,0.00,0.00,0.00
[2025-07-07 06:13:17.144] ,5180,0,0,1.23,9.75,-1.14,-1.28,0.00,-0.75,4.75,-21.31,12.88,-29.56,-2.54,83.15,9.03,-0.11,0.03,0.00,58.28,-0.19,-0.38,-0.49,58.34,1,0.00,0.00,0.00,0.00,0.00,0.00,0.00,0.00,0.00
[2025-07-07 06:13:17.158] ,5193,0,0,1.23,9.56,-1.11,-1.26,8.63,-1.12,1.75,-21.31,12.88,-29.56,-2.43,83.13,9.05,-0.11,0.03,0.00,58.29,-0.19,-0.38,-0.49,58.34,1,0.00,0.00,0.00,0.00,0.00,0.00,0.00,0.00,0.00
[2025-07-07 06:13:17.170] ,5205,0,0,1.24,9.75,-1.18,-1.18,-3.12,0.00,-1.62,-21.31,12.88,-29.56,-2.47,83.13,9.03,-0.11,0.03,0.00,58.29,-0.19,-0.38,-0.49,58.34,1,0.00,0.00,0.00,0.00,0.00,0.00,0.00,0.00,0.00
[2025-07-07 06:13:17.176] ,5221,0,0,1.24,9.79,-1.20,-1.13,-6.62,0.37,-3.50,-20.50,11.81,-28.87,-2.57,83.14,8.98,-0.11,0.03,0.00,58.30,-0.19,-0.38,-0.49,58.34,1,0.00,0.00,0.00,0.00,0.00,0.00,0.00,0.00,0.00
[2025-07-07 06:13:17.191] ,5233,0,0,1.25,9.79,-1.14,-1.28,-2.12,-1.12,-2.12,-20.50,11.81,-28.87,-2.60,83.12,8.95,-0.11,0.03,0.00,58.30,-0.19,-0.38,-0.49,58.34,1,0.00,0.00,0.00,0.00,0.00,0.00,0.00,0.00,0.00
[2025-07-07 06:13:17.208] ,5247,0,0,1.25,9.75,-1.14,-1.28,12.75,-4.25,7.37,-20.50,11.81,-28.87,-2.44,83.07,9.04,-0.11,0.03,0.00,58.25,-0.19,-0.38,-0.49,58.34,1,0.00,0.00,0.00,0.00,0.00,0.00,0.00,0.00,0.00
[2025-07-07 06:13:17.223] ,5259,0,0,1.26,9.73,-1.11,-1.32,3.00,-4.37,-2.75,-20.50,11.81,-28.87,-2.40,83.01,9.01,-0.11,0.03,0.00,58.22,-0.19,-0.38,-0.49,58.34,1,0.00,0.00,0.00,0.00,0.00,0.00,0.00,0.00,0.00
[2025-07-07 06:13:17.238] ,5284,0,0,1.26,9.73,-1.18,-1.22,-7.25,3.37,-4.62,-21.31,11.81,-30.31,-2.57,83.10,8.89,0.10,0.04,0.00,58.28,-0.30,-0.42,-0.71,58.33,1,0.00,0.00,0.00,0.00,0.00,0.00,0.00,0.00,0.00
[2025-07-07 06:13:17.258] ,5298,0,0,1.27,9.71,-1.16,-1.28,-1.62,-1.75,4.25,-21.31,11.81,-30.31,-2.60,83.07,8.95,0.10,0.04,0.00,58.28,-0.30,-0.42,-0.71,58.33,1,0.00,0.00,0.00,0.00,0.00,0.00,0.00,0.00,0.00
[2025-07-07 06:13:17.270] ,5311,0,0,1.27,9.73,-1.05,-1.28,-1.62,-0.37,-1.62,-21.31,11.81,-30.31,-2.62,83.07,8.93,0.10,0.04,0.00,58.28,-0.30,-0.42,-0.71,58.33,1,0.00,0.00,0.00,0.00,0.00,0.00,0.00,0.00,0.00
[2025-07-07 06:13:17.280] ,5327,0,0,1.28,9.73,-1.07,-1.26,-5.00,-6.00,4.62,-21.69,11.44,-29.56,-2.70,82.97,9.00,0.10,0.04,0.00,58.33,-0.30,-0.42,-0.71,58.33,1,0.00,0.00,0.00,0.00,0.00,0.00,0.00,0.00,0.00
[2025-07-07 06:13:17.297] ,5341,0,0,1.28,9.71,-1.09,-1.22,0.50,-2.00,-0.50,-21.69,11.44,-29.56,-2.69,82.95,8.99,0.10,0.04,0.00,58.33,-0.30,-0.42,-0.71,58.33,1,0.00,0.00,0.00,0.00,0.00,0.00,0.00,0.00,0.00
[2025-07-07 06:13:17.308] ,5354,0,0,1.29,9.79,-1.13,-1.34,8.63,2.75,-4.12,-21.69,11.44,-29.56,-2.57,82.98,8.94,0.10,0.04,0.00,58.34,-0.30,-0.42,-0.71,58.33,1,0.00,0.00,0.00,0.00,0.00,0.00,0.00,0.00,0.00
[2025-07-07 06:13:17.322] ,5367,0,0,1.29,9.69,-1.13,-1.24,-6.62,5.25,0.00,-21.69,11.44,-29.56,-2.66,83.05,8.94,0.10,0.04,0.00,58.32,-0.30,-0.42,-0.71,58.33,1,0.00,0.00,0.00,0.00,0.00,0.00,0.00,0.00,0.00
[2025-07-07 06:13:17.335] ,5387,0,0,1.30,9.77,-1.09,-1.28,4.00,6.87,-0.88,-20.94,10.69,-29.56,-2.58,83.19,8.92,-0.49,0.02,0.00,58.31,-0.05,-0.28,-0.19,58.32,1,0.00,0.00,0.00,0.00,0.00,0.00,0.00,0.00,0.00
[2025-07-07 06:13:17.358] ,5401,0,0,1.31,9.69,-1.14,-1.34,8.13,0.88,3.12,-20.94,10.69,-29.56,-2.48,83.20,8.96,-0.49,0.02,0.00,58.30,-0.05,-0.28,-0.19,58.32,1,0.00,0.00,0.00,0.00,0.00,0.00,0.00,0.00,0.00
[2025-07-07 06:13:17.367] ,5413,0,0,1.31,9.71,-1.20,-1.34,-6.87,1.50,-4.87,-20.94,10.69,-29.56,-2.57,83.22,8.90,-0.49,0.02,0.00,58.30,-0.05,-0.28,-0.19,58.32,1,0.00,0.00,0.00,0.00,0.00,0.00,0.00,0.00,0.00
[2025-07-07 06:13:17.382] ,5430,0,0,1.32,9.61,-1.22,-1.37,9.00,0.00,0.50,-20.94,11.81,-29.19,-2.42,83.22,8.90,-0.49,0.02,0.00,58.34,-0.05,-0.28,-0.19,58.32,1,0.00,0.00,0.00,0.00,0.00,0.00,0.00,0.00,0.00
[2025-07-07 06:13:17.398] ,5443,0,0,1.32,9.63,-1.11,-1.34,7.62,-3.75,4.37,-20.94,11.81,-29.19,-2.32,83.17,8.96,-0.49,0.02,0.00,58.34,-0.05,-0.28,-0.19,58.32,1,0.00,0.00,0.00,0.00,0.00,0.00,0.00,0.00,0.00
[2025-07-07 06:13:17.413] ,5456,0,0,1.33,9.69,-1.16,-1.34,2.25,-5.00,-0.37,-20.94,11.81,-29.19,-2.29,83.10,8.96,-0.49,0.02,0.00,58.34,-0.05,-0.28,-0.19,58.32,1,0.00,0.00,0.00,0.00,0.00,0.00,0.00,0.00,0.00
[2025-07-07 06:13:17.424] ,5476,0,0,1.33,9.71,-1.16,-1.22,4.00,-2.37,0.75,-21.31,12.50,-29.19,-2.21,83.06,8.97,-0.26,0.03,0.00,58.33,0.01,-0.23,0.04,58.34,0,0.00,0.00,0.00,0.00,0.00,0.00,0.00,0.00,0.00
[2025-07-07 06:13:17.435] ,5489,0,0,1.34,9.65,-1.09,-1.34,-2.00,-2.37,-4.87,-21.31,12.50,-29.19,-2.24,83.03,8.91,-0.26,0.03,0.00,58.33,0.01,-0.23,0.04,58.34,0,0.00,0.00,0.00,0.00,0.00,0.00,0.00,0.00,0.00
[2025-07-07 06:13:17.458] ,5502,0,0,1.34,9.71,-1.20,-1.30,-4.62,0.00,5.12,-21.31,12.50,-29.19,-2.30,83.03,8.97,-0.26,0.03,0.00,58.32,0.01,-0.23,0.04,58.34,0,0.00,0.00,0.00,0.00,0.00,0.00,0.00,0.00,0.00
[2025-07-07 06:13:17.474] ,5515,0,0,1.35,9.71,-1.11,-1.28,4.00,-0.88,5.12,-21.31,12.50,-29.19,-2.25,83.01,9.04,-0.26,0.03,0.00,58.32,0.01,-0.23,0.04,58.34,0,0.00,0.00,0.00,0.00,0.00,0.00,0.00,0.00,0.00
[2025-07-07 06:13:17.476] ,5532,0,0,1.35,9.69,-1.11,-1.24,4.00,0.37,-0.13,-22.12,11.81,-29.19,-2.18,83.02,9.04,-0.26,0.03,0.00,58.30,0.01,-0.23,0.04,58.34,0,0.00,0.00,0.00,0.00,0.00,0.00,0.00,0.00,0.00
[2025-07-07 06:13:17.492] ,5545,0,0,1.36,9.77,-1.14,-1.22,3.75,3.00,0.50,-22.12,11.81,-29.19,-2.13,83.06,9.05,-0.26,0.03,0.00,58.28,0.01,-0.23,0.04,58.34,0,0.00,0.00,0.00,0.00,0.00,0.00,0.00,0.00,0.00
[2025-07-07 06:13:17.508] ,5558,0,0,1.36,9.71,-1.20,-1.32,-4.12,-7.50,-1.50,-22.12,11.81,-29.19,-2.18,82.96,9.03,-0.26,0.03,0.00,58.28,0.01,-0.23,0.04,58.34,0,0.00,0.00,0.00,0.00,0.00,0.00,0.00,0.00,0.00
[2025-07-07 06:13:17.523] ,5578,0,0,1.37,9.75,-1.09,-1.28,0.37,-0.62,0.75,-22.50,12.50,-28.50,-2.18,82.95,9.04,0.05,0.03,0.00,58.31,-0.11,-0.28,-0.40,58.31,1,0.00,0.00,0.00,0.00,0.00,0.00,0.00,0.00,0.00
[2025-07-07 06:13:17.539] ,5591,0,0,1.37,9.71,-1.11,-1.22,2.37,-1.12,2.00,-22.50,12.50,-28.50,-2.15,82.94,9.07,0.05,0.03,0.00,58.31,-0.11,-0.28,-0.40,58.31,1,0.00,0.00,0.00,0.00,0.00,0.00,0.00,0.00,0.00
[2025-07-07 06:13:17.539] ,5605,0,0,1.38,9.63,-1.07,-1.34,-5.50,-1.25,-6.00,-22.50,12.50,-28.50,-2.22,82.92,8.98,0.05,0.03,0.00,58.29,-0.11,-0.28,-0.40,58.31,1,0.00,0.00,0.00,0.00,0.00,0.00,0.00,0.00,0.00
[2025-07-07 06:13:17.558] ,5618,0,0,1.38,9.69,-1.14,-1.28,-1.50,2.87,-7.50,-22.50,12.50,-28.50,-2.24,82.96,8.89,0.05,0.03,0.00,58.29,-0.11,-0.28,-0.40,58.31,1,0.00,0.00,0.00,0.00,0.00,0.00,0.00,0.00,0.00
[2025-07-07 06:13:17.581] ,5635,0,0,1.39,9.67,-1.14,-1.28,-0.62,0.88,5.37,-20.94,12.88,-28.87,-2.25,82.97,8.97,0.05,0.03,0.00,58.29,-0.11,-0.28,-0.40,58.31,1,0.00,0.00,0.00,0.00,0.00,0.00,0.00,0.00,0.00
[2025-07-07 06:13:17.587] ,5647,0,0,1.39,9.71,-1.16,-1.26,1.50,-1.25,5.50,-20.94,12.88,-28.87,-2.23,82.95,9.05,0.05,0.03,0.00,58.29,-0.11,-0.28,-0.40,58.31,1,0.00,0.00,0.00,0.00,0.00,0.00,0.00,0.00,0.00
[2025-07-07 06:13:17.608] ,5662,0,0,1.40,9.67,-1.16,-1.26,-1.25,0.00,-1.62,-20.94,12.88,-28.87,-2.25,82.95,9.02,0.05,0.03,0.00,58.29,-0.11,-0.28,-0.40,58.31,1,0.00,0.00,0.00,0.00,0.00,0.00,0.00,0.00,0.00
[2025-07-07 06:13:17.622] ,5682,0,0,1.40,9.59,-1.18,-1.24,-0.62,-2.75,13.13,-21.31,11.44,-28.87,-2.26,82.90,9.30,-0.39,0.02,0.00,58.27,-0.08,-0.25,-0.32,58.30,1,0.00,0.00,0.00,0.00,0.00,0.00,0.00,0.00,0.00
[2025-07-07 06:13:17.635] ,5695,0,0,1.41,9.69,-1.14,-1.28,5.12,2.37,-1.62,-21.31,11.44,-28.87,-2.20,82.93,9.28,-0.39,0.02,0.00,58.27,-0.08,-0.25,-0.32,58.30,1,0.00,0.00,0.00,0.00,0.00,0.00,0.00,0.00,0.00
[2025-07-07 06:13:17.647] ,5709,0,0,1.41,9.61,-1.26,-1.26,3.12,3.87,-1.12,-21.31,11.44,-28.87,-2.16,82.98,9.26,-0.39,0.02,0.00,58.27,-0.08,-0.25,-0.32,58.30,1,0.00,0.00,0.00,0.00,0.00,0.00,0.00,0.00,0.00
[2025-07-07 06:13:17.658] ,5724,0,0,1.42,9.79,-1.07,-1.30,1.37,-4.75,-2.50,-21.69,12.50,-29.94,-2.13,82.90,9.22,-0.39,0.02,0.00,58.25,-0.08,-0.25,-0.32,58.30,1,0.00,0.00,0.00,0.00,0.00,0.00,0.00,0.00,0.00
[2025-07-07 06:13:17.669] ,5738,0,0,1.42,9.59,-1.13,-1.28,1.50,-5.12,6.12,-21.69,12.50,-29.94,-2.11,82.84,9.30,-0.39,0.02,0.00,58.25,-0.08,-0.25,-0.32,58.30,1,0.00,0.00,0.00,0.00,0.00,0.00,0.00,0.00,0.00
[2025-07-07 06:13:17.685] ,5750,0,0,1.43,9.69,-1.07,-1.30,3.37,-4.37,8.13,-21.69,12.50,-29.94,-2.07,82.78,9.41,-0.39,0.02,0.00,58.25,-0.08,-0.25,-0.32,58.30,1,0.00,0.00,0.00,0.00,0.00,0.00,0.00,0.00,0.00
[2025-07-07 06:13:17.701] ,5764,0,0,1.43,9.63,-1.20,-1.28,0.50,-2.25,-1.12,-21.69,12.50,-29.94,-2.06,82.75,9.40,-0.39,0.02,0.00,58.25,-0.08,-0.25,-0.32,58.30,1,0.00,0.00,0.00,0.00,0.00,0.00,0.00,0.00,0.00
[2025-07-07 06:13:17.708] ,5790,0,0,1.44,9.71,-1.16,-1.24,-6.12,1.37,2.12,-21.69,11.81,-28.87,-2.22,82.78,9.45,-0.55,0.02,0.00,58.21,-0.13,-0.26,-0.51,58.29,1,0.00,0.00,0.00,0.00,0.00,0.00,0.00,0.00,0.00
[2025-07-07 06:13:17.727] ,5802,0,0,1.44,9.69,-1.20,-1.28,4.00,-4.00,-0.50,-21.69,11.81,-28.87,-2.17,82.73,9.45,-0.55,0.02,0.00,58.21,-0.13,-0.26,-0.51,58.29,1,0.00,0.00,0.00,0.00,0.00,0.00,0.00,0.00,0.00
[2025-07-07 06:13:17.742] ,5816,0,0,1.45,9.69,-1.14,-1.34,0.13,-5.37,-2.37,-21.69,11.81,-28.87,-2.17,82.66,9.41,-0.55,0.02,0.00,58.28,-0.13,-0.26,-0.51,58.29,1,0.00,0.00,0.00,0.00,0.00,0.00,0.00,0.00,0.00
[2025-07-07 06:13:17.744] ,5832,0,0,1.45,9.58,-1.20,-1.30,-1.37,0.00,1.62,-22.50,11.44,-30.31,-2.19,82.66,9.44,-0.55,0.02,0.00,58.28,-0.13,-0.26,-0.51,58.29,1,0.00,0.00,0.00,0.00,0.00,0.00,0.00,0.00,0.00
[2025-07-07 06:13:17.768] ,5845,0,0,1.46,9.73,-1.09,-1.18,-3.62,-3.50,0.50,-22.50,11.44,-30.31,-2.24,82.62,9.45,-0.55,0.02,0.00,58.28,-0.13,-0.26,-0.51,58.29,1,0.00,0.00,0.00,0.00,0.00,0.00,0.00,0.00,0.00
[2025-07-07 06:13:17.775] ,5859,0,0,1.46,9.75,-1.20,-1.24,-0.13,7.37,-3.00,-22.50,11.44,-30.31,-2.25,82.71,9.41,-0.55,0.02,0.00,58.28,-0.13,-0.26,-0.51,58.29,1,0.00,0.00,0.00,0.00,0.00,0.00,0.00,0.00,0.00
[2025-07-07 06:13:17.791] ,5879,0,0,1.47,9.71,-1.05,-1.34,1.00,-6.25,-0.88,-21.69,12.19,-29.56,-2.23,82.59,9.39,0.94,0.05,0.00,58.28,-0.05,-0.21,-0.23,58.29,1,0.00,0.00,0.00,0.00,0.00,0.00,0.00,0.00,0.00
[2025-07-07 06:13:17.808] ,5892,0,0,1.47,9.75,-1.16,-1.30,13.75,-2.75,1.87,-21.69,12.19,-29.56,-2.05,82.55,9.41,0.94,0.05,0.00,58.28,-0.05,-0.21,-0.23,58.29,1,0.00,0.00,0.00,0.00,0.00,0.00,0.00,0.00,0.00
