packet.module,packet.rssi_dBm,packet.snr_dBm,packet.ident,packet.uptime_s,logger.doLogging,logger.usage,logger.number,dynamics.acceleration_mps2.norm,dynamics.acceleration_mps2.x,dynamics.acceleration_mps2.y,dynamics.acceleration_mps2.z,dynamics.orientation_deg.roll,dynamics.orientation_deg.pitch,dynamics.orientation_deg.yaw,dynamics.forceX_N,dynamics.jerkX_mps3,trajectory.altitude_m,trajectory.verticalSpeed_mps,trajectory.apogee_m,trajectory.estimated_s,electrical.voltage_V.ground,electrical.voltage_V.battery,electrical.voltage_V.tie,electrical.voltage_V.bus,electrical.current_mA.ground,electrical.current_mA.battery,electrical.current_mA.tie,electrical.current_mA.bus,electrical.power_W.ground,electrical.power_W.battery,electrical.power_W.tie,electrical.power_W.bus,thermal.temperature_degC.regulator1,thermal.temperature_degC.regulator2,thermal.temperature_degC.regulator3,thermal.temperature_degC.conduction,thermal.temperature_degC.outside,thermal.temperature_degC.inside,thermal.temperature_degC.ventPort,thermal.temperature_degC.tankAtmosphere,sutegoma.uptime_s,sutegoma.taskRate_Hz
S,-109,-7,,295.772,False,0,0,10.3,10.2,-1.3,-0.6,-4.2,51.1,85.3,3.2,0,0,0,-0.1,-0.1,0,0,0,0,819.2,819.2,819.2,819.2,0,0,0,0,80.1,52.9,53.5,59,-85.8,0,0,0,0,0
S,-109,-7,,295.772,False,0,0,10.3,10.2,-1.3,-0.6,-4.2,51.1,85.3,3.2,0,0,0,-0.1,-0.1,0,0,0,0,819.2,819.2,819.2,819.2,0,0,0,0,80.1,52.9,53.5,59,-85.8,0,0,0,0,0
S,-112,-9.75,,332.258,False,0,0,9.4,9.3,-1.3,-0.5,5.7,65.3,90.6,-6.6,-0.1,0,0,-0.1,-0.1,0,0,0,0,819.2,819.2,819.2,819.2,0,0,0,0,71.8,53.2,53.6,67.1,-88.1,0,0,0,0,0
S,-113,-8.25,,332.768,False,0,0,9.7,9.6,-1.4,-0.5,4.7,66.1,91.4,-5.1,-0.1,0,0,-0.1,-0.1,0,0,0,0,819.2,819.2,819.2,819.2,0,0,0,0,70.9,54.2,54,64.5,-88.1,0,0,0,0,0
S,-113,-8.25,,332.768,False,0,0,9.7,9.6,-1.4,-0.5,4.7,66.1,91.4,-5.1,-0.1,0,0,-0.1,-0.1,0,0,0,0,819.2,819.2,819.2,819.2,0,0,0,0,70.9,54.2,54,64.5,-88.1,0,0,0,0,0
S,-113,-7,,333.262,False,0,0,10,9.9,-1.2,-0.4,5.7,66.9,91.1,0.8,0,0,0,-0.1,-0.1,0,0,0,0,819.2,819.2,819.2,819.2,0,0,0,0,73.9,54.6,53.6,58.7,-83.9,0,0,0,0,0
S,-112,-5.75,,333.77,False,0,0,10,9.9,-1.3,-0.5,7.7,67.1,91,1.4,0,0,0,-0.1,-0.1,0,0,0,0,819.2,819.2,819.2,819.2,0,0,0,0,71.8,54.2,53.3,64.7,-85.8,0,0,0,0,0
S,-112,-6.75,,334.256,False,0,0,9.9,9.8,-1.4,-0.5,5.5,67,92.2,0.4,0,0,0,-0.1,-0.1,0,0,0,0,819.2,819.2,819.2,819.2,0,0,0,0,71.5,53,53.4,61.6,-85.8,0,0,0,0,0
S,-112,-4.5,,334.765,False,0,0,10,10,-1.2,-0.5,5.1,67,91.8,0.7,0,0,0,-0.1,-0.1,0,0,0,0,819.2,819.2,819.2,819.2,0,0,0,0,70.6,56.5,55.4,68.1,-90.9,0,0,0,0,0
S,-112,-4.5,,335.261,False,0,0,9.9,9.8,-0.8,-0.3,3.6,67.8,90.6,-0.3,0,0,0,-0.1,-0.1,0,0,0,0,819.2,819.2,819.2,819.2,0,0,0,0,70.9,63.1,61.8,68.7,-90.9,0,0,0,0,0
S,-112,-3.75,,335.766,False,0,0,10,9.9,-0.9,-0.3,3.7,68.4,90.5,3.1,0,0,0,-0.1,-0.1,0,0,0,0,819.2,819.2,819.2,819.2,0,0,0,0,81.9,53.8,53.8,58,-88.1,0,0,0,0,0
S,-111,-3.5,,336.263,False,0,0,9.9,9.9,-0.9,-0.2,2.6,68.1,90.7,0,0,0,0,-0.1,-0.1,0,0,0,0,819.2,819.2,819.2,819.2,0,0,0,0,73.1,54.4,52.7,58.3,-78.3,0,0,0,0,0
S,-114,-6.75,,338.265,False,0,0,9.9,9.9,-0.7,-0.5,4.4,69.2,91.4,-1,0,0,0,-0.1,-0.1,0,0,0,0,819.2,819.2,819.2,819.2,0,0,0,0,71.2,56.8,55.2,67.5,-83.9,0,0,0,0,0
S,-114,-7.5,,338.771,False,0,0,9.9,9.8,-0.6,-0.4,4.5,68.2,89.5,-0.2,0,0,0,-0.1,-0.1,0,0,0,0,819.2,819.2,819.2,819.2,0,0,0,0,81.9,53.2,58.2,62.4,-90.9,0,0,0,0,0
S,-112,-3.25,,342.264,False,0,0,9.5,9.5,0,-0.6,-1.2,66.7,88.5,-3.9,0,0,0,-0.1,-0.1,0,0,0,0,819.2,819.2,819.2,819.2,0,0,0,0,73.7,53.5,54.2,59.7,-83.9,0,0,0,0,0
S,-111,-3,,342.766,False,0,0,9.7,9.6,-0.6,-0.4,-0.3,64.3,89.1,-1.6,0,0,0,-0.1,-0.1,0,0,0,0,819.2,819.2,819.2,819.2,0,0,0,0,71.6,52.9,52.5,58.3,-77.2,0,0,0,0,0
S,-111,-3,,342.766,False,0,0,9.7,9.6,-0.6,-0.4,-0.3,64.3,89.1,-1.6,0,0,0,-0.1,-0.1,0,0,0,0,819.2,819.2,819.2,819.2,0,0,0,0,71.6,52.9,52.5,58.3,-77.2,0,0,0,0,0
S,-111,-3.75,,343.259,False,0,0,9.6,9.5,-0.4,-0.9,2.1,65.7,87.8,-5.9,-0.1,0,0,-0.1,-0.1,0,0,0,0,819.2,819.2,819.2,-0.1,0,0,0,0,71.6,55.2,55.6,59.3,-90.9,0,0,0,0,0
S,-111,-3,,343.764,False,0,0,10.6,10.5,0.5,-1.3,0.4,61.7,87,2.6,0,0,0,-0.1,-0.1,0,0,0,0,819.2,819.2,819.2,819.2,0,0,0,0,71.6,55.3,60.3,59.7,-90.9,0,0,0,0,0
S,-111,-4.5,,344.259,False,0,0,9.9,9.4,1.1,-2.8,10.8,58.2,77.3,-4,0,0,0,-0.1,-0.1,0,0,0,0,819.2,819.2,819.2,819.2,0,0,0,0,72.9,55.2,60.8,58.8,-85.8,0,0,0,0,0
S,-111,-2.75,,344.771,False,0,0,9.3,8.7,1.1,-3.1,17.6,56.5,76.4,-6.1,-0.1,0,0,-0.1,-0.1,0,0,0,0,819.2,819.2,819.2,819.2,0,0,0,0,70.3,62.2,54.1,58.4,-82.2,0,0,0,0,0
S,-112,-3,,345.265,False,0,0,8.1,7.9,1.5,-1,6.8,69,85.1,-21.6,-0.4,0,0,-0.1,-0.1,0,0,0,0,819.2,819.2,819.2,819.2,0,0,0,0,71.9,53.4,54.5,59.1,-88.1,0,0,0,0,0
S,-112,-3,,345.265,False,0,0,8.1,7.9,1.5,-1,6.8,69,85.1,-21.6,-0.4,0,0,-0.1,-0.1,0,0,0,0,819.2,819.2,819.2,819.2,0,0,0,0,71.9,53.4,54.5,59.1,-88.1,0,0,0,0,0
S,-111,-4.25,,345.77,False,0,0,10.8,10.8,-1.1,-0.5,7.1,71.8,89.1,10.7,0.2,0,0,-0.1,-0.1,0,0,0,0,819.2,819.2,819.2,819.2,0,0,0,0,71.3,53.7,58.8,58.5,-85.8,0,0,0,0,0
S,-112,-4,,346.257,False,0,0,9.6,9.5,-0.8,-0.2,9,70.9,89.5,-4,0,0,0,-0.1,-0.1,0,0,0,0,819.2,819.2,819.2,819.2,0,0,0,0,73.5,53.8,59.5,59.6,-88.1,0,0,0,0,0
S,-111,-3.25,,346.765,False,0,0,9.4,9.3,-0.9,0,8.4,73.4,91.9,-3.8,0,0,0,-0.1,-0.1,0,0,0,0,819.2,819.2,819.2,819.2,0,0,0,0,71.2,54.2,53.7,61.8,-85.8,0,0,0,0,0
S,-111,-2.25,,347.258,False,0,0,10.3,10.2,-1.3,0.1,3.4,71.3,88.5,5.3,0.1,0,0,-0.1,-0.1,0,0,0,0,819.2,819.2,819.2,819.2,0,0,0,0,72.2,52.5,61.5,59.9,-85.8,0,0,0,0,0
S,-112,-1.5,,347.765,False,0,0,10.4,10.3,-1.5,0.1,6.6,74.3,89.5,10.3,0.2,0,0,-0.1,-0.1,0,0,0,0,819.2,819.2,819.2,819.2,0,0,0,0,71.1,53.4,55.3,60.2,-83.9,0,0,0,0,0
S,-110,-3.5,,348.764,False,0,0,9,9,-0.8,0,-0.6,72.4,88.4,-9.1,-0.1,0,0,-0.1,-0.1,0,0,0,0,819.2,-0.1,-0.1,-0.1,0,0,0,0,72.5,55.5,53.3,61.8,-85.8,0,0,0,0,0
S,-111,-4.25,,349.257,False,0,0,10,9.9,-1,0,-3.5,71,88.7,0.8,0,0,0,-0.1,-0.1,0,0,0,0,819.2,819.2,819.2,819.2,0,0,0,0,71.6,54.7,55.3,58.3,-82.2,0,0,0,0,0
S,-111,-3.25,,349.77,False,0,0,10,10,-0.7,-0.4,-1.4,70,87.4,-1.6,0,0,0,-0.1,-0.1,0,0,0,0,819.2,819.2,819.2,819.2,0,0,0,0,71.5,53.3,54.4,62.8,-83.9,0,0,0,0,0
S,-111,-3.25,,349.77,False,0,0,10,10,-0.7,-0.4,-1.4,70,87.4,-1.6,0,0,0,-0.1,-0.1,0,0,0,0,819.2,819.2,819.2,819.2,0,0,0,0,71.5,53.3,54.4,62.8,-83.9,0,0,0,0,0
S,-111,-4.5,,350.265,False,0,0,9.6,9.3,1.3,-1.7,4.4,64.3,80,-2.8,0,0,0,-0.1,-0.1,0,0,0,0,819.2,819.2,819.2,819.2,0,0,0,0,72.6,53.6,52.9,58.6,-88.1,0,0,0,0,0
S,-111,-3.5,,350.765,False,0,0,10.9,10.7,1.3,-1.8,12.1,67.1,77.4,9.6,0.2,0,0,-0.1,-0.1,0,0,0,0,819.2,819.2,819.2,819.2,0,0,0,0,71.7,54.2,53.4,57.2,-83.9,0,0,0,0,0
S,-112,-3.25,,351.259,False,0,0,10,10,0.6,-1.2,10.1,70.9,77.7,2.7,0,0,0,-0.1,-0.1,0,0,0,0,819.2,819.2,819.2,819.2,0,0,0,0,74.2,54.5,54.4,61.4,-90.9,0,0,0,0,0
S,-112,-5,,351.771,False,0,0,11.1,11,0,-1.9,14.1,72,84.3,16.2,0.3,0,0,-0.1,-0.1,0,0,0,0,819.2,819.2,819.2,819.2,0,0,0,0,71.1,54.9,61,58.7,-88.1,0,0,0,0,0
S,-112,-5,,351.771,False,0,0,11.1,11,0,-1.9,14.1,72,84.3,16.2,0.3,0,0,-0.1,-0.1,0,0,0,0,819.2,819.2,819.2,819.2,0,0,0,0,71.1,54.9,61,58.7,-88.1,0,0,0,0,0
S,-111,-3,,352.26,False,0,0,10.6,10.5,-0.7,0,11,77.9,85.9,-8.1,-0.1,0,0,-0.1,-0.1,0,0,0,0,819.2,819.2,819.2,819.2,0,0,0,0,72.5,54.3,56.6,60.7,-88.1,0,0,0,0,0
S,-112,-3.5,,353.263,False,0,0,10.5,9.7,3.3,1.8,32.7,96.6,66,0.3,0,0,0,-0.1,-0.1,0,0,0,0,819.2,819.2,819.2,819.2,0,0,0,0,73.1,55,53.4,59.2,-88.1,0,0,0,0,0
S,-112,-3,,353.771,False,0,0,9.6,8.4,3.4,3,31.5,98.6,63.9,-0.7,0,0,0,-0.1,-0.1,0,0,0,0,819.2,819.2,819.2,819.2,0,0,0,0,73,55.2,55.9,61.2,-85.8,0,0,0,0,0
S,-112,-5.75,,354.257,False,0,0,7.7,7.3,1.1,1.9,35.3,102.7,67.9,4.2,0.1,0,0,-0.1,-0.1,0,0,0,0,819.2,819.2,819.2,819.2,0,0,0,0,80.6,55.1,56.3,58.7,-83.9,0,0,0,0,0
S,-111,-2,,354.767,False,0,0,10.4,10.2,-1.8,0.8,3.2,83.1,96.9,11.1,0.1,0,0,-0.1,-0.1,0,0,0,0,819.2,819.2,819.2,819.2,0,0,0,0,72.1,54.6,62.2,63.1,-85.8,0,0,0,0,0
S,-111,-2,,354.767,False,0,0,10.4,10.2,-1.8,0.8,3.2,83.1,96.9,11.1,0.1,0,0,-0.1,-0.1,0,0,0,0,819.2,819.2,819.2,819.2,0,0,0,0,72.1,54.6,62.2,63.1,-85.8,0,0,0,0,0
S,-113,-5,,355.258,False,0,0,10.1,10,-1.5,-0.2,10.8,86.3,95.2,1.9,0,0,0,-0.1,-0.1,0,0,0,0,819.2,819.2,819.2,819.2,0,0,0,0,70.7,52,58.9,62.8,-82.2,0,0,0,0,0
S,-110,-8.75,,355.766,False,0,0,10.6,10.5,-1.5,-0.4,5.4,84.8,93.4,5.7,0,0,0,-0.1,-0.1,0,0,0,0,819.2,819.2,819.2,819.2,0,0,0,0,72.3,53.2,60.5,58.6,-85.8,0,0,0,0,0
S,-111,-6,,358.256,False,0,0,9.9,9.9,-0.5,-0.5,-3.2,83,87.1,-1.9,0,0,0,-0.1,-0.1,0,0,0,0,819.2,819.2,819.2,819.2,0,0,0,0,73.8,56.1,54.1,65.3,-88.1,0,0,0,0,0
S,-111,-2.5,,358.767,False,0,0,9.8,9.8,-0.4,-0.3,-7,82.6,86,-0.6,0,0,0,-0.1,-0.1,0,0,0,0,819.2,819.2,819.2,819.2,0,0,0,0,71.4,61.5,55.1,68,-94.8,0,0,0,0,0
S,-110,-3,,359.264,False,0,0,9.7,9.7,-0.6,-0.1,-6,83.8,84.2,-2.6,0,0,0,-0.1,-0.1,0,0,0,0,819.2,819.2,819.2,819.2,0,0,0,0,75.2,53.3,52.8,59.1,-83.9,0,0,0,0,0
S,-110,-1.5,,359.766,False,0,0,9.8,9.8,-0.4,-0.3,-5.7,84.1,84.5,0.7,0,0,0,-0.1,-0.1,0,0,0,0,819.2,819.2,819.2,819.2,0,0,0,0,74.1,53.8,55.3,61.2,-88.1,0,0,0,0,0
S,-112,-1.25,,360.258,False,0,0,9.7,9.7,-0.5,-0.1,-6.7,83.9,84.6,-1.2,0,0,0,-0.1,-0.1,0,0,0,0,819.2,819.2,819.2,819.2,0,0,0,0,81.8,63.1,61,59,-83.9,0,0,0,0,0
S,-111,-1.5,,360.768,False,0,0,9.7,9.7,-0.3,-0.2,-5.9,83.3,85.8,-0.4,0,0,0,-0.1,-0.1,0,0,0,0,819.2,819.2,819.2,819.2,0,0,0,0,81.9,54.9,52,67.1,-90.9,0,0,0,0,0
S,-109,-3.75,,361.261,False,0,0,9.7,9.7,-0.5,-0.4,-4.1,84.2,85.7,-1.4,0,0,0,-0.1,-0.1,0,0,0,0,819.2,819.2,819.2,819.2,0,0,0,0,70.3,52.7,54.4,61.6,-85.8,0,0,0,0,0
S,-109,-3.75,,361.261,False,0,0,9.7,9.7,-0.5,-0.4,-4.1,84.2,85.7,-1.4,0,0,0,-0.1,-0.1,0,0,0,0,819.2,819.2,819.2,819.2,0,0,0,0,70.3,52.7,54.4,61.6,-85.8,0,0,0,0,0
S,-110,-1.75,,361.766,False,0,0,9.6,9.5,-0.9,0,-5.2,84.8,84.4,-5.8,-0.1,0,0,-0.1,-0.1,0,0,0,0,819.2,819.2,819.2,819.2,0,0,0,0,73.3,60.8,54.2,61.8,-85.8,0,0,0,0,0
S,-109,-3.25,,362.256,False,0,0,9.8,9.8,-0.7,-0.3,-5.8,85.5,86.5,0.2,0,0,0,-0.1,-0.1,0,0,0,0,819.2,819.2,819.2,819.2,0,0,0,0,81.4,54.3,53.5,60.3,-85.8,0,0,0,0,0
S,-110,-2.5,,362.765,False,0,0,9.8,9.8,-0.6,-0.1,-7.6,85.4,87.5,0,0,0,0,-0.1,-0.1,0,0,0,0,819.2,819.2,819.2,819.2,0,0,0,0,71.9,53.3,61.7,67.9,-85.8,0,0,0,0,0
S,-110,-3.5,,363.259,False,0,0,9.9,9.8,-1.1,-0.2,-5.2,85.5,87.5,-1,0,0,0,-0.1,-0.1,0,0,0,0,819.2,819.2,819.2,819.2,0,0,0,0,74.3,55.4,53.4,58.1,-82.2,0,0,0,0,0
S,-110,-0.25,,363.771,False,0,0,10,10,-0.6,-0.1,-6.7,85.5,87.9,1.4,0,0,0,-0.1,-0.1,0,0,0,0,819.2,819.2,819.2,819.2,0,0,0,0,74.3,53.1,54.8,59.7,-79.5,0,0,0,0,0
S,-110,-1.5,,364.257,False,0,0,9.8,9.7,-0.9,-0.3,-5.1,86.1,87.6,-0.3,0,0,0,-0.1,-0.1,0,0,0,0,819.2,819.2,819.2,819.2,0,0,0,0,74.7,68.8,54.6,58.6,-88.1,0,0,0,0,0
S,-109,0,,364.767,False,0,0,9.8,9.8,-0.4,-0.5,-6.9,86.1,84.9,-2.6,0,0,0,-0.1,-0.1,0,0,0,0,819.2,819.2,819.2,819.2,0,0,0,0,71.9,55,54.9,65.1,-82.2,0,0,0,0,0
S,-109,0,,365.264,False,0,0,9.9,9.9,-0.6,-0.1,-13.6,85.9,85.2,0.5,0,0,0,-0.1,-0.1,0,0,0,0,819.2,819.2,819.2,819.2,0,0,0,0,73.3,59,53.4,59.4,-85.8,0,0,0,0,0
S,-111,-1.5,,365.771,False,0,0,10.2,10.1,-1.2,-0.6,-11.5,86.5,87.1,4.2,0,0,0,-0.1,-0.1,0,0,0,0,819.2,819.2,819.2,819.2,0,0,0,0,71.9,61.3,54.3,59.7,-85.8,0,0,0,0,0
S,-111,-1.5,,365.771,False,0,0,10.2,10.1,-1.2,-0.6,-11.5,86.5,87.1,4.2,0,0,0,-0.1,-0.1,0,0,0,0,819.2,819.2,819.2,819.2,0,0,0,0,71.9,61.3,54.3,59.7,-85.8,0,0,0,0,0
S,-110,-3.25,,366.264,False,0,0,9.8,9.8,-0.7,-0.4,-12.2,86,87.2,-0.9,0,0,0,-0.1,-0.1,0,0,0,0,819.2,819.2,819.2,819.2,0,0,0,0,75.2,61.9,54.7,64.7,-88.1,0,0,0,0,0
S,-110,-3.25,,366.264,False,0,0,9.8,9.8,-0.7,-0.4,-12.2,86,87.2,-0.9,0,0,0,-0.1,-0.1,0,0,0,0,819.2,819.2,819.2,819.2,0,0,0,0,75.2,61.9,54.7,64.7,-88.1,0,0,0,0,0
S,-111,-4.5,,366.772,False,0,0,9.9,9.8,-1.2,-0.8,-6.7,85,88.1,0.2,0,0,0,-0.1,-0.1,0,0,0,0,819.2,819.2,819.2,819.2,0,0,0,0,80.5,53.8,59.3,58.7,-88.1,0,0,0,0,0
S,-110,-3,,367.257,False,0,0,9.7,9.7,-0.3,-0.6,-10.3,86.2,89.1,-0.1,0,0,0,-0.1,-0.1,0,0,0,0,819.2,819.2,819.2,819.2,0,0,0,0,70,52.8,52.8,59.3,-88.1,0,0,0,0,0
S,-110,-3,,367.257,False,0,0,9.7,9.7,-0.3,-0.6,-10.3,86.2,89.1,-0.1,0,0,0,-0.1,-0.1,0,0,0,0,819.2,819.2,819.2,819.2,0,0,0,0,70,52.8,52.8,59.3,-88.1,0,0,0,0,0
S,-111,-1.5,,367.767,False,0,0,9.1,9,-0.9,0.5,-25.9,84.1,89.2,-5.2,-0.1,0,0,-0.1,-0.1,0,0,0,0,819.2,819.2,819.2,819.2,0,0,0,0,72.3,53.5,54.6,59.8,-80.8,0,0,0,0,0
S,-109,-4.75,,368.263,False,0,0,9.8,9.5,-1.9,-1,-43.6,88,97.3,4.1,0,0,0,-0.1,-0.1,0,0,0,0,819.2,819.2,819.2,819.2,0,0,0,0,71.8,53.9,53.2,59.1,-94.8,0,0,0,0,0
S,-112,-3.25,,368.771,False,0,0,9.5,9.2,-2.3,-0.8,-45.7,83.3,97.7,-8.2,-0.1,0,0,-0.1,-0.1,0,0,0,0,819.2,819.2,819.2,819.2,0,0,0,0,73.4,54,55.7,58.4,-94.8,0,0,0,0,0
S,-112,-3.25,,369.259,False,0,0,9.9,9.7,-1.7,-1,-37.4,85.3,94.5,0.4,0,0,0,-0.1,-0.1,0,0,0,0,819.2,819.2,819.2,819.2,0,0,0,0,74,54.3,61.4,57.7,-88.1,0,0,0,0,0
S,-113,-5.25,,369.77,False,0,0,9.7,9.3,-2.6,-1,-16.3,81,91.7,-9.9,-0.2,0,0,-0.1,-0.1,0,0,0,0,819.2,819.2,819.2,819.2,0,0,0,0,80.6,53.5,55.3,61,-88.1,0,0,0,0,0
S,-112,-4.75,,370.258,False,0,0,9.7,9.5,-1.6,-1,-10.2,83.3,89.8,-4.2,0,0,0,-0.1,-0.1,0,0,0,0,819.2,819.2,819.2,819.2,0,0,0,0,81.3,59.6,55,60,-83.9,0,0,0,0,0
S,-112,-4.25,,370.766,False,0,0,9.9,9.8,-1,-0.4,-19.9,83.6,90.3,2.4,0,0,0,-0.1,-0.1,0,0,0,0,819.2,819.2,819.2,819.2,0,0,0,0,72.3,52.5,54.5,60,-85.8,0,0,0,0,0
S,-112,-4.25,,370.766,False,0,0,9.9,9.8,-1,-0.4,-19.9,83.6,90.3,2.4,0,0,0,-0.1,-0.1,0,0,0,0,819.2,819.2,819.2,819.2,0,0,0,0,72.3,52.5,54.5,60,-85.8,0,0,0,0,0
S,-112,-2.75,,371.264,False,0,0,9.9,9.9,-0.7,-0.4,-25.1,86.3,87.9,-4.8,0,0,0,-0.1,-0.1,0,0,0,0,819.2,819.2,819.2,819.2,0,0,0,0,72.5,53.1,53.4,60.5,-85.8,0,0,0,0,0
S,-112,-3.5,,371.765,False,0,0,10,9.9,-1.2,-0.6,-24.5,84,89.6,2.2,0,0,0,-0.1,-0.1,0,0,0,0,819.2,819.2,819.2,819.2,0,0,0,0,71.8,53.2,52.7,61.6,-90.9,0,0,0,0,0
S,-111,-4,,372.259,False,0,0,9.8,9.4,-2.6,-0.9,-28.2,82,91.4,-2.3,0,0,0,-0.1,-0.1,0,0,0,0,819.2,819.2,819.2,819.2,0,0,0,0,80.3,53.6,54.4,57.4,-82.2,0,0,0,0,0
S,-111,-2,,372.772,False,0,0,10,9.9,-1.5,-0.6,-29,82.6,91.7,-0.7,0,0,0,-0.1,-0.1,0,0,0,0,819.2,-0.1,-0.1,-0.1,0,0,0,0,75,53.8,61.1,59,-88.1,0,0,0,0,0
S,-111,-2,,372.772,False,0,0,10,9.9,-1.5,-0.6,-29,82.6,91.7,-0.7,0,0,0,-0.1,-0.1,0,0,0,0,819.2,-0.1,-0.1,-0.1,0,0,0,0,75,53.8,61.1,59,-88.1,0,0,0,0,0
S,-112,-4,,373.264,False,0,0,9.5,9.4,-1.3,-0.8,-23.8,82.8,87.9,-7,-0.1,0,0,-0.1,-0.1,0,0,0,0,819.2,819.2,819.2,819.2,0,0,0,0,81.9,54.4,56.8,61.8,-94.8,0,0,0,0,0
S,-111,-2.75,,373.766,False,0,0,10.4,10.2,-1.7,-0.8,-24.5,82.2,91.4,7.9,0.1,0,0,-0.1,-0.1,0,0,0,0,819.2,819.2,819.2,819.2,0,0,0,0,71.8,56.2,60.4,67.1,-85.8,0,0,0,0,0
S,-111,-1.5,,374.26,False,0,0,10.1,10,-1.3,-0.9,-20.7,81.8,91.1,4.5,0,0,0,-0.1,-0.1,0,0,0,0,819.2,819.2,819.2,819.2,0,0,0,0,74.8,61.3,53.9,61.8,-88.1,0,0,0,0,0
S,-110,-0.75,,374.77,False,0,0,10,9.8,-1.5,-0.4,-19.6,83.3,90.4,1.6,0,0,0,-0.1,-0.1,0,0,0,0,819.2,819.2,819.2,819.2,0,0,0,0,74.6,59.7,53.2,58.3,-88.1,0,0,0,0,0
S,-111,-2.75,,375.263,False,0,0,9.3,9.2,-1.3,-0.4,-21.5,81.9,89.3,-9.6,-0.1,0,0,-0.1,-0.1,0,0,0,0,819.2,819.2,819.2,819.2,0,0,0,0,72.3,55.6,54.4,58.2,-90.9,0,0,0,0,0
S,-110,-4.75,,375.764,False,0,0,9.2,9.1,-0.9,-0.3,-29.8,79.2,86.3,-7,-0.1,0,0,-0.1,-0.1,0,0,0,0,819.2,819.2,819.2,819.2,0,0,0,0,73.5,53.5,53.4,61.7,-83.9,0,0,0,0,0
S,-110,-4.75,,376.257,False,0,0,9.9,9.8,-0.9,-1,-21.3,84.7,87.4,-0.7,0,0,0,-0.1,-0.1,0,0,0,0,819.2,819.2,819.2,819.2,0,0,0,0,71.2,56.3,53.2,59,-88.1,0,0,0,0,0
S,-112,-3.75,,376.766,False,0,0,10.2,10.1,-1.5,-0.7,-19,83,89.8,5.5,0.1,0,0,-0.1,-0.1,0,0,0,0,819.2,819.2,819.2,819.2,0,0,0,0,70.8,62.2,59.2,59.3,-90.9,0,0,0,0,0
S,-112,-4,,377.765,False,0,0,9.5,9.4,-1.5,-0.4,-21.9,84.5,89.2,-5.4,-0.1,0,0,-0.1,-0.1,0,0,0,0,819.2,819.2,819.2,819.2,0,0,0,0,73.9,53.2,54.9,60.4,-90.9,0,0,0,0,0
S,-112,-4.75,,378.263,False,0,0,10,9.9,-1.5,-0.1,-21.6,86.7,91.3,2.8,0,0,0,-0.1,-0.1,0,0,0,0,819.2,819.2,819.2,819.2,0,0,0,0,70.4,55.9,52.7,59.4,-83.9,0,0,0,0,0
S,-108,-7.25,,379.265,False,0,0,10,9.9,-1.8,-0.3,-15.7,86.9,90.7,0.6,0,0,0,-0.1,-0.1,0,0,0,0,819.2,819.2,819.2,819.2,0,0,0,0,72.4,56.6,55.9,59.3,-85.8,0,0,0,0,0
S,-111,-6.5,,379.771,False,0,0,9.9,9.7,-1.5,-0.4,-17.6,87.3,90.2,-1.2,0,0,0,-0.1,-0.1,0,0,0,0,819.2,819.2,819.2,819.2,0,0,0,0,71,55.5,52.1,59.6,-82.2,0,0,0,0,0
S,-111,-5.25,,380.256,False,0,0,9.8,9.7,-1.5,-0.2,-17.7,87.9,90.9,0,0,0,0,-0.1,-0.1,0,0,0,0,819.2,819.2,819.2,819.2,0,0,0,0,80.8,54.2,53.3,57.6,-85.8,0,0,0,0,0
S,-110,-3.5,,380.77,False,0,0,9.9,9.7,-1.7,-0.3,-15.6,88.4,92.8,0,0,0,0,-0.1,-0.1,0,0,0,0,819.2,819.2,819.2,819.2,0,0,0,0,71,54.2,61.8,60,-83.9,0,0,0,0,0
S,-110,-3.5,,380.77,False,0,0,9.9,9.7,-1.7,-0.3,-15.6,88.4,92.8,0,0,0,0,-0.1,-0.1,0,0,0,0,819.2,819.2,819.2,819.2,0,0,0,0,71,54.2,61.8,60,-83.9,0,0,0,0,0
S,-109,-4,,381.264,False,0,0,9.9,9.7,-2.2,-0.2,-13.1,88,93.9,1.3,0,0,0,-0.1,-0.1,0,0,0,0,819.2,819.2,819.2,819.2,0,0,0,0,71,55.7,52.8,60.5,-85.8,0,0,0,0,0
S,-112,-3.75,,381.765,False,0,0,10.1,10,-1.7,-0.4,-16.6,88.2,95,3.5,0,0,0,-0.1,-0.1,0,0,0,0,819.2,819.2,819.2,819.2,0,0,0,0,81.4,61.7,54.5,59,-85.8,0,0,0,0,0
S,-111,-3.5,,382.26,False,0,0,9.6,9.4,-1.9,-0.6,-14.3,87.5,94.8,-2.8,0,0,0,-0.1,-0.1,0,0,0,0,819.2,819.2,819.2,819.2,0,0,0,0,69.8,53.5,53.2,60.9,-101.1,0,0,0,0,0
S,-112,-5.25,,382.77,False,0,0,10,9.8,-2.1,-0.2,-13.8,88,94.8,-1.5,0,0,0,-0.1,-0.1,0,0,0,0,819.2,819.2,819.2,819.2,0,0,0,0,70.8,55.7,53.2,67.8,-85.8,0,0,0,0,0
S,-112,-5.25,,382.77,False,0,0,10,9.8,-2.1,-0.2,-13.8,88,94.8,-1.5,0,0,0,-0.1,-0.1,0,0,0,0,819.2,819.2,819.2,819.2,0,0,0,0,70.8,55.7,53.2,67.8,-85.8,0,0,0,0,0
S,-112,-3.75,,385.767,False,0,0,9.7,9,-2.3,2.9,-37.4,104.6,79,-1.5,0,0,0,-0.1,-0.1,0,0,0,0,819.2,819.2,819.2,819.2,0,0,0,0,70,53.7,53.7,59,-85.8,0,0,0,0,0
S,-112,-6,,386.258,False,0,0,10.1,9.2,-2.8,3,-51.8,108,82.2,0.6,0,0,0,-0.1,-0.1,0,0,0,0,819.2,819.2,819.2,819.2,0,0,0,0,73.2,53,61,68.5,-85.8,0,0,0,0,0
S,-111,-3.5,,386.763,False,0,0,10.5,9.4,-3,3.4,-55.2,109.3,83.6,6.4,0.1,0,0,-0.1,-0.1,0,0,0,0,819.2,819.2,819.2,-0.1,0,0,0,0,74.3,52.1,52.9,59.5,-90.9,0,0,0,0,0
S,-111,-3.5,,386.763,False,0,0,10.5,9.4,-3,3.4,-55.2,109.3,83.6,6.4,0.1,0,0,-0.1,-0.1,0,0,0,0,819.2,819.2,819.2,-0.1,0,0,0,0,74.3,52.1,52.9,59.5,-90.9,0,0,0,0,0
S,-112,-2.75,,387.26,False,0,0,9.4,9.3,-0.7,1,-50.8,90.6,72.9,-21.3,-0.4,0,0,-0.1,-0.1,0,0,0,0,819.2,819.2,819.2,819.2,0,0,0,0,80,56.2,53.9,58.4,-94.8,0,0,0,0,0
S,-112,-3,,387.77,False,0,0,10.3,10.3,-0.9,0,-20.9,94,71.8,9,0.2,0,0,-0.1,-0.1,0,0,0,0,819.2,819.2,819.2,819.2,0,0,0,0,74.7,61.1,55.2,60.4,-88.1,0,0,0,0,0
S,-112,-3,,387.77,False,0,0,10.3,10.3,-0.9,0,-20.9,94,71.8,9,0.2,0,0,-0.1,-0.1,0,0,0,0,819.2,819.2,819.2,819.2,0,0,0,0,74.7,61.1,55.2,60.4,-88.1,0,0,0,0,0
S,-111,-5.75,,389.259,False,0,0,10.1,10,-1.5,0.2,-9.8,91.3,77.6,5.7,0.1,0,0,-0.1,-0.1,0,0,0,0,819.2,819.2,819.2,819.2,0,0,0,0,71.8,54.6,59.3,68,-85.8,0,0,0,0,0
S,-111,-5.75,,389.259,False,0,0,10.1,10,-1.5,0.2,-9.8,91.3,77.6,5.7,0.1,0,0,-0.1,-0.1,0,0,0,0,819.2,819.2,819.2,819.2,0,0,0,0,71.8,54.6,59.3,68,-85.8,0,0,0,0,0
S,-110,-8.5,,389.769,False,0,0,10.1,9.9,-1.5,0,-8.2,91.4,78.1,1.3,0,0,0,-0.1,-0.1,0,0,0,0,819.2,819.2,819.2,819.2,0,0,0,0,71.7,56.3,56.1,59.7,-88.1,0,0,0,0,0
S,-111,-5.25,,390.264,False,0,0,9.9,9.8,-0.9,0,-13.4,88.5,72.1,0.2,0,0,0,-0.1,-0.1,0,0,0,0,819.2,819.2,819.2,819.2,0,0,0,0,70.1,53.7,55,58.6,-83.9,0,0,0,0,0
S,-111,-5.25,,390.264,False,0,0,9.9,9.8,-0.9,0,-13.4,88.5,72.1,0.2,0,0,0,-0.1,-0.1,0,0,0,0,819.2,819.2,819.2,819.2,0,0,0,0,70.1,53.7,55,58.6,-83.9,0,0,0,0,0
S,-109,-1,,390.772,False,0,0,9.6,9.6,-0.5,0,1.4,89.4,70,-3.6,0,0,0,-0.1,-0.1,0,0,0,0,819.2,819.2,819.2,819.2,0,0,0,0,70.6,53.2,54.9,60.2,-82.2,0,0,0,0,0
S,-110,0.25,,391.263,False,0,0,8.8,8.4,-1.5,-1.8,3.7,80.2,74.9,-13.4,-0.2,0,0,-0.1,-0.1,0,0,0,0,819.2,819.2,819.2,819.2,0,0,0,0,73.9,61.7,53.6,60.3,-82.2,0,0,0,0,0
S,-111,-3.25,,391.763,False,0,0,10.3,9.8,-1,-3,5.2,75.3,71.3,1.7,0,0,0,-0.1,-0.1,0,0,0,0,819.2,819.2,819.2,819.2,0,0,0,0,72.6,53.3,54.8,59.6,-90.9,0,0,0,0,0
S,-111,-1.5,,392.259,False,0,0,10.8,10.8,-0.3,-0.3,3.6,87.5,67.6,9.9,0.2,0,0,-0.1,-0.1,0,0,0,0,819.2,819.2,819.2,819.2,0,0,0,0,71.2,54.3,55.5,60.6,-85.8,0,0,0,0,0
S,-111,-1.5,,392.259,False,0,0,10.8,10.8,-0.3,-0.3,3.6,87.5,67.6,9.9,0.2,0,0,-0.1,-0.1,0,0,0,0,819.2,819.2,819.2,819.2,0,0,0,0,71.2,54.3,55.5,60.6,-85.8,0,0,0,0,0
S,-112,-1.25,,392.767,False,0,0,10.6,10.2,-0.1,-2.7,5.3,83.1,66.9,5.5,0.1,0,0,-0.1,-0.1,0,0,0,0,819.2,819.2,819.2,819.2,0,0,0,0,72.1,55.6,67.5,61,-85.8,0,0,0,0,0
S,-111,-2.25,,393.259,False,0,0,9.3,8.9,1.2,-2.6,7,75.7,55,-12.4,-0.2,0,0,-0.1,-0.1,0,0,0,0,819.2,819.2,819.2,819.2,0,0,0,0,73.7,53.3,59.5,67.3,-85.8,0,0,0,0,0
S,-111,-3,,393.769,False,0,0,10.3,10.1,-0.7,-1.9,-0.3,80.3,64.5,2.6,0,0,0,-0.1,-0.1,0,0,0,0,819.2,819.2,819.2,819.2,0,0,0,0,74.5,54.8,56.6,59.2,-85.8,0,0,0,0,0
S,-111,-1.75,,394.265,False,0,0,9.1,9,-0.7,-0.7,-5.2,87,65.3,-11.3,-0.2,0,0,-0.1,-0.1,0,0,0,0,819.2,819.2,819.2,819.2,0,0,0,0,70.8,53.4,53,67,-88.1,0,0,0,0,0
S,-111,-1.75,,394.265,False,0,0,9.1,9,-0.7,-0.7,-5.2,87,65.3,-11.3,-0.2,0,0,-0.1,-0.1,0,0,0,0,819.2,819.2,819.2,819.2,0,0,0,0,70.8,53.4,53,67,-88.1,0,0,0,0,0
S,-111,-2,,394.767,False,0,0,10.7,10.7,-0.4,0.7,-18.3,90.9,70.6,18.6,0.3,0,0,-0.1,-0.1,0,0,0,0,819.2,819.2,819.2,819.2,0,0,0,0,73.2,55.5,55.6,59.9,-90.9,0,0,0,0,0
S,-112,-2.25,,395.259,False,0,0,10.5,10.3,0.8,-1.8,-8.6,84.8,66.2,-0.5,0,0,0,-0.1,-0.1,0,0,0,0,819.2,819.2,819.2,819.2,0,0,0,0,73.7,52.8,56.6,62.2,-101.1,0,0,0,0,0
S,-112,-2.25,,395.77,False,0,0,9.9,9.7,1,-1.9,-5.9,78.8,61.5,1.9,0,0,0,-0.1,-0.1,0,0,0,0,819.2,819.2,819.2,819.2,0,0,0,0,71.5,53.2,53.4,64.1,-88.1,0,0,0,0,0
S,-112,-2.25,,395.77,False,0,0,9.9,9.7,1,-1.9,-5.9,78.8,61.5,1.9,0,0,0,-0.1,-0.1,0,0,0,0,819.2,819.2,819.2,819.2,0,0,0,0,71.5,53.2,53.4,64.1,-88.1,0,0,0,0,0
S,-111,-1.5,,396.258,False,0,0,9.5,9.3,1.3,-1.3,-10.1,85.6,60.4,-2.1,0,0,0,-0.1,-0.1,4,0,0,0,819.2,819.2,819.2,819.2,0,0,0,0,73.3,53.8,57.7,60.8,-88.1,0,0,0,0,0
S,-111,-2,,396.767,False,0,0,9.8,9.6,1.8,-0.5,-24.3,85.7,58.7,3.7,0.1,0,0,-0.1,-0.1,0,0,0,0,819.2,819.2,819.2,819.2,0,0,0,0,72.7,52.9,52.9,66.4,-88.1,0,0,0,0,0
S,-111,-2.25,,397.264,False,0,0,9.9,9.7,1.8,-0.6,-26.4,85.1,55.6,2.7,0,0,0,-0.1,-0.1,0,0,0,0,819.2,819.2,819.2,819.2,0,0,0,0,70.6,53.6,54.9,58.6,-85.8,0,0,0,0,0
S,-111,-3.75,,397.764,False,0,0,9.5,9.2,2.3,-0.1,-29.3,85.7,52.9,0,0,0,0,-0.1,-0.1,0,0,0,0,819.2,819.2,819.2,819.2,0,0,0,0,71.1,55.2,67.4,60.1,-85.8,0,0,0,0,0
S,-110,-2.5,,398.257,False,0,0,9.5,9.3,2,-0.3,-29.2,84.4,53.3,0.2,0,0,0,-0.1,-0.1,0,0,0,0,819.2,819.2,819.2,819.2,0,0,0,0,72.7,61.4,55.3,60.1,-88.1,0,0,0,0,0
S,-110,-2.5,,398.257,False,0,0,9.5,9.3,2,-0.3,-29.2,84.4,53.3,0.2,0,0,0,-0.1,-0.1,0,0,0,0,819.2,819.2,819.2,819.2,0,0,0,0,72.7,61.4,55.3,60.1,-88.1,0,0,0,0,0
S,-112,-5.25,,398.765,False,0,0,9.5,9.2,2.1,-0.6,-28.3,84.3,55.2,0.3,0,0,0,-0.1,-0.1,0,0,0,0,819.2,819.2,819.2,819.2,0,0,0,0,71.3,53.6,53.6,67.4,-85.8,0,0,0,0,0
S,-112,-4,,399.263,False,0,0,9.8,9.6,2.3,-0.3,-30.7,83.6,56.7,3.4,0,0,0,-0.1,-0.1,0,0,0,0,819.2,819.2,819.2,819.2,0,0,0,0,69.3,61,60.2,60.1,-90.9,0,0,0,0,0
S,-112,-4,,399.263,False,0,0,9.8,9.6,2.3,-0.3,-30.7,83.6,56.7,3.4,0,0,0,-0.1,-0.1,0,0,0,0,819.2,819.2,819.2,819.2,0,0,0,0,69.3,61,60.2,60.1,-90.9,0,0,0,0,0
S,-111,-4,,399.765,False,0,0,10.8,10.6,1.5,-1.1,-27.9,82.6,58.8,13.5,0.2,0,0,-0.1,-0.1,0,0,0,0,819.2,819.2,819.2,819.2,0,0,0,0,69.6,62.7,61.8,60.6,-82.2,0,0,0,0,0
S,-111,-2.25,,400.26,False,0,0,9.3,9.1,2.1,-0.8,-24.9,84.7,55.7,-1.2,0,0,0,-0.1,-0.1,0,0,0,0,819.2,819.2,819.2,819.2,0,0,0,0,80.6,53,67.7,61,-88.1,0,0,0,0,0
S,-110,-2,,400.77,False,0,0,9.2,8.9,2.1,-0.8,-21.2,86.1,56.3,-5,0,0,0,-0.1,-0.1,0,0,0,0,819.2,819.2,819.2,819.2,0,0,0,0,73.6,56.5,54.7,61.6,-85.8,0,0,0,0,0
S,-110,-2,,400.77,False,0,0,9.2,8.9,2.1,-0.8,-21.2,86.1,56.3,-5,0,0,0,-0.1,-0.1,0,0,0,0,819.2,819.2,819.2,819.2,0,0,0,0,73.6,56.5,54.7,61.6,-85.8,0,0,0,0,0
S,-111,-1.5,,401.265,False,0,0,9.5,9.2,2.1,-0.6,-19.8,85.5,55.4,-5,0,0,0,-0.1,-0.1,0,0,0,0,819.2,819.2,819.2,819.2,0,0,0,0,74.8,53.6,52.7,61.2,-85.8,0,0,0,0,0
S,-111,-2.75,,401.771,False,0,0,9.9,9.6,2,-0.9,-22,87.3,58.3,2,0,0,0,-0.1,-0.1,0,0,0,0,819.2,819.2,819.2,819.2,0,0,0,0,71.3,53.1,58.2,68.6,-83.9,0,0,0,0,0
S,-110,-3.25,,402.256,False,0,0,9.7,9.5,1.9,-0.3,-27.8,85.5,56.8,2.7,0,0,0,-0.1,-0.1,8.2,0,0,0,819.2,819.2,819.2,819.2,0,0,0,0,72.1,55.3,53.1,61.1,-85.8,0,0,0,0,0
S,-112,-3.75,,402.765,False,0,0,9.3,9.1,2.1,-0.5,-26.2,85.5,56.2,-4,0,0,0,-0.1,-0.1,0,0,0,0,819.2,819.2,819.2,819.2,0,0,0,0,73.8,54.1,52.7,59,-88.1,0,0,0,0,0
S,-111,-2.75,,403.259,False,0,0,9.6,9.4,2,-1,-23.1,84.1,54.7,1,0,0,0,-0.1,-0.1,0,0,0,0,819.2,819.2,819.2,819.2,0,0,0,0,73.2,59.7,61.4,58.9,-83.9,0,0,0,0,0
S,-111,-2.75,,403.771,False,0,0,9.7,9.3,2.4,-0.9,-22.1,82.6,55.4,1.1,0,0,0,-0.1,-0.1,0,0,0,0,819.2,-0.1,-0.1,-0.1,0,0,0,0,72.1,54.7,59.4,62.3,-88.1,0,0,0,0,0
S,-112,-4,,404.256,False,0,0,9.5,9.1,2.4,-1,-20.3,85.9,54.8,-0.6,0,0,0,-0.1,-0.1,0,0,0,0,819.2,819.2,819.2,819.2,0,0,0,0,70.7,54.8,60.2,59.3,-88.1,0,0,0,0,0
S,-112,-5.25,,404.771,False,0,0,9.6,9.2,2.3,-1.1,-19.2,84.6,55.2,-0.4,0,0,0,-0.1,-0.1,0,0,0,0,819.2,819.2,819.2,819.2,0,0,0,0,70.7,52.8,53.1,64.8,-88.1,0,0,0,0,0
S,-112,-4.75,,406.264,False,0,0,9.7,9.4,1.8,-1.2,-21.5,84.4,57.8,1.7,0,0,0,-0.1,-0.1,0,0,0,0,0,0,0,0,0,0,0,0,73.8,52.7,55.5,59.9,-85.8,0,0,0,0,0
S,-112,-4,,406.766,False,0,0,9.4,9.2,1.8,-1,-22.1,85.4,58.4,-1.6,0,0,0,-0.1,-0.1,0,0,0,0,819.2,819.2,819.2,819.2,0,0,0,0,81.5,55.9,58.6,59.6,-88.1,0,0,0,0,0
S,-112,-3.5,,407.257,False,0,0,9.9,9.7,1.6,-1.1,-22.4,84.7,58.7,3.9,0,0,0,-0.1,-0.1,0,0,0,0,819.2,819.2,819.2,819.2,0,0,0,0,73.3,53.7,55,59.4,-85.8,0,0,0,0,0
S,-112,-2.5,,407.765,False,0,0,9.7,9.5,1.8,-1.3,-22.6,84.4,58.8,1.4,0,0,0,-0.1,-0.1,0,0,0,0,819.2,819.2,819.2,819.2,0,0,0,0,72.6,53.8,60.4,61.4,-85.8,0,0,0,0,0
S,-112,-2.25,,408.26,False,0,0,9.5,9.2,1.8,-1.3,-22,83.5,58.4,-2.7,0,0,0,-0.1,-0.1,0,0,0,0,819.2,819.2,819.2,819.2,0,0,0,0,73.5,56.6,53.2,60.6,-90.9,0,0,0,0,0
S,-112,-2.25,,408.26,False,0,0,9.5,9.2,1.8,-1.3,-22,83.5,58.4,-2.7,0,0,0,-0.1,-0.1,0,0,0,0,819.2,819.2,819.2,819.2,0,0,0,0,73.5,56.6,53.2,60.6,-90.9,0,0,0,0,0
S,-111,-3.75,,408.764,False,0,0,9.4,9.2,1.8,-1.3,-21.2,83.1,58.5,-1.5,0,0,0,-0.1,-0.1,0,0,0,0,819.2,819.2,819.2,819.2,0,0,0,0,70.9,54.9,51.8,58.8,-83.9,0,0,0,0,0
S,-111,-3.75,,408.764,False,0,0,9.4,9.2,1.8,-1.3,-21.2,83.1,58.5,-1.5,0,0,0,-0.1,-0.1,0,0,0,0,819.2,819.2,819.2,819.2,0,0,0,0,70.9,54.9,51.8,58.8,-83.9,0,0,0,0,0
S,-111,-1.75,,409.264,False,0,0,9.6,9.4,1.6,-1.2,-21,84.5,59.8,0.7,0,0,0,-0.1,-0.1,0,0,0,0,819.2,-0.1,-0.1,-0.1,0,0,0,0,74.9,62.5,53.9,59.6,-94.8,0,0,0,0,0
S,-111,-2,,409.768,False,0,0,10,9.8,1.2,-1.8,-14.7,81.7,61.5,6.5,0.1,0,0,-0.1,-0.1,0,0,0,0,819.2,819.2,819.2,819.2,0,0,0,0,72,60.6,55.4,59.6,-88.1,0,0,0,0,0
S,-112,-2.25,,410.258,False,0,0,9.5,9.4,1,-1.5,-15.8,83.9,61.5,0,0,0,0,-0.1,-0.1,0,0,0,0,819.2,819.2,819.2,819.2,0,0,0,0,80.7,56,56.5,58.7,-83.9,0,0,0,0,0
S,-110,-3,,410.772,False,0,0,9.6,9.4,1,-1.8,-14,82.8,61.9,-1.3,0,0,0,-0.1,-0.1,0,0,0,0,819.2,819.2,819.2,819.2,0,0,0,0,73,56.8,52.8,61.1,-90.9,0,0,0,0,0
S,-111,-2,,411.264,False,0,0,9.5,9.3,0.4,-1.9,-11,83.2,64.9,1.1,0,0,0,-0.1,-0.1,0,0,0,0,819.2,819.2,819.2,819.2,0,0,0,0,69.8,54,55.5,60,-90.9,0,0,0,0,0
S,-110,-3.25,,411.771,False,0,0,10.2,10,0.4,-2.2,-8.2,82.4,65.9,4.7,0,0,0,-0.1,-0.1,0,0,0,0,819.2,819.2,819.2,819.2,0,0,0,0,72.4,56.4,61.7,59.1,-85.8,0,0,0,0,0
S,-112,-3.25,,412.257,False,0,0,9.9,9.6,1,-2.2,-4.4,82.4,62.7,-0.8,0,0,0,-0.1,-0.1,0,0,0,0,819.2,819.2,819.2,819.2,0,0,0,0,69.6,55.3,54.2,61.7,-85.8,0,0,0,0,0
S,-111,-3.75,,412.766,False,0,0,9.7,9.5,0.4,-2,-6.5,83.4,63.8,2.8,0,0,0,-0.1,-0.1,0,4,0,0,819.2,819.2,819.2,819.2,0,0,0,0,72.8,53.9,53.4,60.2,-88.1,0,0,0,0,0
S,-112,-3.75,,413.264,False,0,0,9.4,9.4,-0.8,-0.9,-56.5,86.8,72.2,7.8,0.1,0,0,-0.1,-0.1,0,0,0,0,819.2,819.2,819.2,819.2,0,0,0,0,70.6,52.9,59.1,58.6,-88.1,0,0,0,0,0
S,-112,-5.5,,413.767,False,0,0,10.2,10.1,-0.8,1.1,-95.3,91.3,77.5,4.8,0,0,0,-0.1,-0.1,0,0,0,0,819.2,-0.1,-0.1,-0.1,0,0,0,0,71.6,54.8,54.6,59.6,-83.9,0,0,0,0,0
S,-112,-4.25,,414.258,False,0,0,11.2,11.1,0.5,1.3,-114.6,95.4,71.2,15.9,0.3,0,0,-0.1,-0.1,0,0,0,0,819.2,819.2,819.2,819.2,0,0,0,0,72.2,55.2,61.3,65.4,-90.9,0,0,0,0,0
S,-112,-6.25,,414.767,False,0,0,10.2,10,-1.5,1.1,-145.6,91.4,73.9,7.7,0.1,0,0,-0.1,-0.1,0,0,0,0,819.2,819.2,-0.1,-0.1,0,0,0,0,70.9,56.3,53.6,58.4,-90.9,0,0,0,0,0
S,-111,-8,,418.772,False,0,0,9.8,9.7,0.2,1.2,-121.5,102.6,70.1,3.9,0,0,0,-0.1,-0.1,0,0,0,0,819.2,819.2,819.2,819.2,0,0,0,0,73.8,53.5,55.2,58.6,-83.9,0,0,0,0,0
S,-111,-6.75,,419.261,False,0,0,10.1,9.9,0.7,1.7,-115.8,98.5,70.7,5.4,0.1,0,0,-0.1,-0.1,0,0,0,0,819.2,819.2,819.2,819.2,0,0,0,0,72.3,54.9,55.5,58.7,-90.9,0,0,0,0,0
S,-111,-7.75,,419.765,False,0,0,9.3,9.1,0.4,1.5,-112.5,102.1,68.9,-5.4,-0.1,0,0,-0.1,-0.1,0,0,0,0,819.2,819.2,819.2,819.2,0,0,0,0,70.2,53.3,54,58.8,-85.8,0,0,0,0,0
S,-112,-6,,420.261,False,0,0,10.1,9.5,1.3,3,-106.8,106.3,66.5,2.3,0,0,0,-0.1,-0.1,0,0,0,0,819.2,819.2,819.2,819.2,0,0,0,0,81.8,56.3,53.2,59.9,-82.2,0,0,0,0,0
S,-110,-8,,420.768,False,0,0,9.2,9,0.8,1.9,-110.6,102.6,66.8,-3.5,0,0,0,-0.1,-0.1,0,0,0,0,819.2,819.2,819.2,819.2,0,0,0,0,73.4,56.6,54.1,60.3,-88.1,0,0,0,0,0
S,-112,-4.25,,421.262,False,0,0,9.7,9.5,0.8,1.4,-108.4,100.3,68.6,1.6,0,0,0,-0.1,-0.1,0,0,0,0,819.2,819.2,819.2,819.2,0,0,0,0,75.1,61.8,55.6,60.9,-82.2,0,0,0,0,0
S,-113,-4.5,,421.77,False,0,0,9.5,9.4,0.7,1.5,-108.2,99.7,70.5,-1.3,0,0,0,-0.1,-0.1,0,0,0,0,0,0,0,0,0,0,0,0,71.9,54,56.6,61.3,-90.9,0,0,0,0,0
S,-113,-4.5,,421.77,False,0,0,9.5,9.4,0.7,1.5,-108.2,99.7,70.5,-1.3,0,0,0,-0.1,-0.1,0,0,0,0,0,0,0,0,0,0,0,0,71.9,54,56.6,61.3,-90.9,0,0,0,0,0
S,-113,-4.25,,422.257,False,0,0,9.4,9.2,0.5,1.5,-109.2,100.3,71.8,-2.4,0,0,0,-0.1,-0.1,0,0,0,0,819.2,819.2,819.2,819.2,0,0,0,0,70.7,55.5,55.3,59.5,-82.2,0,0,0,0,0
S,-112,-5.75,,422.772,False,0,0,10.2,10.1,0.6,1.3,-111.8,97.7,67.6,2.3,0,0,0,-0.1,-0.1,0,0,0,0,819.2,819.2,819.2,819.2,0,0,0,0,71.8,62.2,54.5,58.3,-85.8,0,0,0,0,0
S,-112,-6.5,,423.258,False,0,0,9.8,9.7,1.1,1.1,-112.8,95.5,67.2,-0.6,0,0,0,-0.1,-0.1,0,0,0,0,819.2,819.2,819.2,819.2,0,0,0,0,73,61.7,52.6,58.6,-90.9,0,0,0,0,0
S,-113,-6,,423.77,False,0,0,9.8,9.6,1.2,1.1,-110.3,97.2,64.6,-1,0,0,0,-0.1,-0.1,0,0,0,0,819.2,819.2,819.2,819.2,0,0,0,0,74.5,54.4,52.7,59.5,-82.2,0,0,0,0,0
S,-112,-6,,424.77,False,0,0,10.1,9.9,0.2,1.9,-111.5,100.9,66.6,3.7,0,0,0,-0.1,-0.1,0,0,0,0,819.2,819.2,819.2,819.2,0,0,0,0,82.3,63.1,56.3,60.5,-90.9,0,0,0,0,0
S,-112,-5.5,,425.772,False,0,0,9.7,9.6,0.1,1.3,-110.8,100.6,70.5,0.1,0,0,0,-0.1,-0.1,0,0,0,0,819.2,819.2,819.2,819.2,0,0,0,0,70.6,55.8,55,59.6,-82.2,0,0,0,0,0
S,-113,-6.75,,426.261,False,0,0,9.7,9.6,0.2,1.3,-109.5,99,72,0.3,0,0,0,-0.1,-0.1,0,0,0,0,819.2,819.2,819.2,819.2,0,0,0,0,82.6,54.7,56.5,59.6,-94.8,0,0,0,0,0
S,-112,-7,,426.767,False,0,0,9.8,9.7,-0.2,1.3,-113.9,99.4,70.5,-4.5,0,0,0,-0.1,-0.1,0,0,0,0,819.2,819.2,819.2,819.2,0,0,0,0,82.3,55,56.3,68.2,-85.8,0,0,0,0,0
S,-112,-5.25,,427.261,False,0,0,9.7,9.6,0.4,1.3,-110.1,99.8,69.8,-0.9,0,0,0,-0.1,-0.1,0,0,0,0,819.2,819.2,819.2,819.2,0,0,0,0,73,52.9,55.3,57.8,-88.1,0,0,0,0,0
S,-111,-8.25,,427.767,False,0,0,9.7,9.6,0.6,1.3,-108.7,100.7,68.2,3.2,0,0,0,-0.1,-0.1,0,0,0,0,819.2,819.2,819.2,819.2,0,0,0,0,72.5,56.2,56.2,62.3,-85.8,0,0,0,0,0
S,-112,-6,,428.261,False,0,0,9.4,9.3,1.2,1.2,-104.9,101.2,67.8,0,0,0,0,-0.1,-0.1,0,0,0,0,819.2,819.2,819.2,819.2,0,0,0,0,71.4,53.4,61.3,60.9,-83.9,0,0,0,0,0
S,-112,-6,,428.261,False,0,0,9.4,9.3,1.2,1.2,-104.9,101.2,67.8,0,0,0,0,-0.1,-0.1,0,0,0,0,819.2,819.2,819.2,819.2,0,0,0,0,71.4,53.4,61.3,60.9,-83.9,0,0,0,0,0
S,-112,-8.25,,428.765,False,0,0,9.6,9.5,1.3,0.8,-106.3,98.2,67.4,-0.1,0,0,0,-0.1,-0.1,0,0,0,0,819.2,819.2,819.2,819.2,0,0,0,0,74.7,61.4,54.2,65.7,-88.1,0,0,0,0,0
S,-112,-5.5,,429.765,False,0,0,10.1,9.8,2.5,0.5,-102.6,96.2,62.8,7.4,0.1,0,0,-0.1,-0.1,0,0,0,0,819.2,819.2,819.2,819.2,0,0,0,0,71.9,55.4,59.7,61.7,-88.1,0,0,0,0,0
S,-112,-5.5,,429.765,False,0,0,10.1,9.8,2.5,0.5,-102.6,96.2,62.8,7.4,0.1,0,0,-0.1,-0.1,0,0,0,0,819.2,819.2,819.2,819.2,0,0,0,0,71.9,55.4,59.7,61.7,-88.1,0,0,0,0,0
S,-112,-5,,430.258,False,0,0,10.3,10,1.6,1.2,-103.2,99.3,62.4,3.2,0,0,0,-0.1,-0.1,0,0,0,0,819.2,819.2,819.2,819.2,0,0,0,0,68.4,61.4,58.6,59.6,-90.9,0,0,0,0,0
S,-113,-3.75,,431.264,False,0,0,9.3,8.9,1.3,2,-108.1,102.5,64,-3.2,0,0,0,-0.1,-0.1,0,0,0,0,819.2,819.2,819.2,819.2,0,0,0,0,75.3,62.6,56.6,60.4,-85.8,0,0,0,0,0
S,-111,-4.5,,431.769,False,0,0,9.2,9,1.6,1.3,-105.2,102.4,62.8,-5.7,-0.1,0,0,-0.1,-0.1,0,0,0,0,819.2,819.2,819.2,819.2,0,0,0,0,74.8,62.3,62.1,59.6,-80.8,0,0,0,0,0
S,-112,-3.75,,432.259,False,0,0,9.5,9.3,1.7,1.3,-103,101.2,60.9,-4.8,0,0,0,-0.1,-0.1,0,0,0,0,819.2,819.2,819.2,819.2,0,0,0,0,73.4,53.8,55,65.2,-88.1,0,0,0,0,0
S,-112,-5,,432.77,False,0,0,10.2,9.8,2.2,1.5,-98.9,102.8,61.4,3.1,0,0,0,-0.1,-0.1,0,0,0,0,819.2,819.2,819.2,819.2,0,0,0,0,71.7,53.6,53.3,61.6,-90.9,0,0,0,0,0
S,-112,-3.75,,433.765,False,0,0,9.6,9.3,2.2,1.3,-104.4,102.5,60.8,0,0,0,0,-0.1,-0.1,0,0,0,0,819.2,819.2,819.2,819.2,0,0,0,0,70.9,55.3,56.2,60.4,-88.1,0,0,0,0,0
S,-112,-2.5,,434.262,False,0,0,9.5,9.1,2.4,1.3,-101.9,101.6,58.7,-0.5,0,0,0,-0.1,-0.1,0,0,0,0,819.2,819.2,819.2,819.2,0,0,0,0,73.4,53.6,53.8,66.6,-85.8,0,0,0,0,0
S,-111,-6,,434.767,False,0,0,9.6,9.2,2.5,1.1,-99.6,101.5,58.3,-0.6,0,0,0,-0.1,-0.1,0,0,0,0,819.2,819.2,819.2,819.2,0,0,0,0,73.4,56.9,55.1,58.7,-90.9,0,0,0,0,0
S,-111,-6,,434.767,False,0,0,9.6,9.2,2.5,1.1,-99.6,101.5,58.3,-0.6,0,0,0,-0.1,-0.1,0,0,0,0,819.2,819.2,819.2,819.2,0,0,0,0,73.4,56.9,55.1,58.7,-90.9,0,0,0,0,0
S,-113,-5.75,,435.771,False,0,0,9.3,8.2,4.3,0.7,-91.9,105.2,48.1,-6.9,-0.1,0,0,-0.1,-0.1,0,0,0,0,819.2,819.2,819.2,819.2,0,0,0,0,70.1,53.2,54.8,58.6,-79.5,0,0,0,0,0
S,-111,-2,,436.258,False,0,0,9.7,8.7,4.1,1.1,-85.9,106.8,51.1,4.2,0.1,0,0,-0.1,-0.1,0,0,0,0,819.2,819.2,-0.1,-0.1,0,0,0,0,80,55.1,54.7,58.2,-85.8,0,0,0,0,0
S,-111,-2,,436.258,False,0,0,9.7,8.7,4.1,1.1,-85.9,106.8,51.1,4.2,0.1,0,0,-0.1,-0.1,0,0,0,0,819.2,819.2,-0.1,-0.1,0,0,0,0,80,55.1,54.7,58.2,-85.8,0,0,0,0,0
S,-112,-2.75,,436.77,False,0,0,9.3,8.2,4.3,0.4,-84.5,102.9,46.6,-5.3,0,0,0,-0.1,-0.1,0,0,0,0,819.2,819.2,819.2,819.2,0,0,0,0,71.9,54.2,61.5,61.3,-88.1,0,0,0,0,0
S,-111,-4,,437.263,False,0,0,8.9,7.6,4.6,-0.2,-80.2,103.5,43.8,-7.6,-0.1,0,0,-0.1,-0.1,0,0,0,0,819.2,819.2,819.2,819.2,0,0,0,0,73.8,56.7,55.3,62,-88.1,0,0,0,0,0
S,-112,-3,,437.763,False,0,0,9.7,8.4,4.9,-0.3,-78.5,104.2,46.3,4.9,0.1,0,0,-0.1,-0.1,0,0,0,0,819.2,819.2,819.2,819.2,0,0,0,0,72.4,52.7,52.5,67.7,-90.9,0,0,0,0,0
S,-112,-3,,437.763,False,0,0,9.7,8.4,4.9,-0.3,-78.5,104.2,46.3,4.9,0.1,0,0,-0.1,-0.1,0,0,0,0,819.2,819.2,819.2,819.2,0,0,0,0,72.4,52.7,52.5,67.7,-90.9,0,0,0,0,0
S,-110,-2,,438.259,False,0,0,10.1,9.8,2.7,0,-87.7,104.4,62.1,18.7,0.3,0,0,-0.1,-0.1,0,0,0,0,819.2,819.2,819.2,819.2,0,0,0,0,71.8,53.2,53.2,58.3,-83.9,0,0,0,0,0
S,-112,-3.25,,438.77,False,0,0,10.1,10,0.6,1.3,-99.4,107.7,73.6,12.5,0.2,0,0,-0.1,-0.1,0,0,0,0,819.2,819.2,819.2,819.2,0,0,0,0,80.3,52.9,55.5,57.5,-85.8,0,0,0,0,0
S,-112,-3.25,,438.77,False,0,0,10.1,10,0.6,1.3,-99.4,107.7,73.6,12.5,0.2,0,0,-0.1,-0.1,0,0,0,0,819.2,819.2,819.2,819.2,0,0,0,0,80.3,52.9,55.5,57.5,-85.8,0,0,0,0,0
S,-113,-6.5,,439.257,False,0,0,9.9,9.8,-0.4,1.3,-105.6,111.2,75.3,8.1,0.1,0,0,-0.1,-0.1,0,0,0,0,819.2,819.2,819.2,819.2,0,0,0,0,75,55.7,53.9,60.8,-88.1,0,0,0,0,0
S,-113,-7.75,,439.766,False,0,0,9.7,9.6,-0.2,1.7,-107.2,108.3,72.3,-5.1,-0.1,0,0,-0.1,-0.1,0,0,0,0,819.2,819.2,819.2,819.2,0,0,0,0,72.4,53.6,58.1,68.2,-85.8,0,0,0,0,0
S,-112,-6.75,,440.765,False,0,0,9.9,9.9,0.2,1.3,-104,106.1,70.2,0.7,0,0,0,-0.1,-0.1,0,0,0,0,819.2,819.2,819.2,819.2,0,0,0,0,72.5,52.1,53.1,58.6,-77.2,0,0,0,0,0
S,-112,-4,,441.765,False,0,0,9.7,9.6,0.5,1.2,-97.2,107.6,70.1,-2.5,0,0,0,-0.1,-0.1,0,0,0,0,819.2,819.2,819.2,819.2,0,0,0,0,70.9,55.8,56.1,59.1,-90.9,0,0,0,0,0
S,-112,-4,,441.765,False,0,0,9.7,9.6,0.5,1.2,-97.2,107.6,70.1,-2.5,0,0,0,-0.1,-0.1,0,0,0,0,819.2,819.2,819.2,819.2,0,0,0,0,70.9,55.8,56.1,59.1,-90.9,0,0,0,0,0
S,-112,-3.5,,442.265,False,0,0,9.8,9.7,0.7,1.2,-97.8,106.9,68.9,-0.5,0,0,0,-0.1,-0.1,0,0,0,0,819.2,819.2,819.2,819.2,0,0,0,0,70.7,52.8,52.6,58.5,-85.8,0,0,0,0,0
S,-112,-4.75,,442.768,False,0,0,9.8,9.7,0.4,1.3,-96.7,108.9,70.5,2,0,0,0,-0.1,-0.1,0,0,0,0,819.2,819.2,819.2,819.2,0,0,0,0,72.6,53.8,55.3,68.1,-85.8,0,0,0,0,0
S,-111,-4,,443.261,False,0,0,9.7,9.5,0.9,1.3,-92.9,110.6,68.5,-1.4,0,0,0,-0.1,-0.1,0,0,0,0,819.2,819.2,819.2,819.2,0,0,0,0,73.2,53.2,53.4,59.1,-90.9,0,0,0,0,0
S,-110,-4.25,,443.764,False,0,0,9.6,9.4,1,1.3,-94.2,111.4,67.5,-2.4,0,0,0,-0.1,-0.1,0,0,0,0,819.2,819.2,819.2,819.2,0,0,0,0,74.1,55.2,61.1,59.2,-79.5,0,0,0,0,0
S,-110,-4.25,,443.764,False,0,0,9.6,9.4,1,1.3,-94.2,111.4,67.5,-2.4,0,0,0,-0.1,-0.1,0,0,0,0,819.2,819.2,819.2,819.2,0,0,0,0,74.1,55.2,61.1,59.2,-79.5,0,0,0,0,0
S,-111,-5,,444.261,False,0,0,10.1,9.9,1.3,1.3,-92.3,111.9,65.2,2.6,0,0,0,-0.1,-0.1,0,0,0,0,819.2,819.2,819.2,819.2,0,0,0,0,72.6,60.3,54.3,60.6,-90.9,0,0,0,0,0
S,-110,-4.5,,444.767,False,0,0,9.5,9.3,1.4,1.3,-90.9,113.9,66.3,0.2,0,0,0,-0.1,-0.1,0,0,0,0,819.2,819.2,819.2,819.2,0,0,0,0,73.3,52,54.2,59.3,-90.9,0,0,0,0,0
S,-112,-3.75,,445.771,False,0,0,9.5,9.3,1.3,1.5,-90.3,113.5,65.6,-1.5,0,0,0,-0.1,-0.1,0,0,0,0,819.2,819.2,819.2,819.2,0,0,0,0,70.8,53.6,53.5,60.3,-82.2,0,0,0,0,0
S,-111,-5.25,,446.264,False,0,0,9.4,9.2,1.6,1.3,-90.4,114.3,64.9,-3.6,0,0,0,-0.1,-0.1,0,0,0,0,819.2,819.2,819.2,819.2,0,0,0,0,71.5,54.4,55.4,68.8,-83.9,0,0,0,0,0
S,-111,-5.25,,446.264,False,0,0,9.4,9.2,1.6,1.3,-90.4,114.3,64.9,-3.6,0,0,0,-0.1,-0.1,0,0,0,0,819.2,819.2,819.2,819.2,0,0,0,0,71.5,54.4,55.4,68.8,-83.9,0,0,0,0,0
S,-111,-5.75,,446.766,False,0,0,9.9,9.7,1.5,1.3,-90.2,113.3,65.7,2.5,0,0,0,-0.1,-0.1,0,0,0,0,819.2,819.2,819.2,819.2,0,0,0,0,71,53.4,54,60.3,-80.8,0,0,0,0,0
S,-111,-5.75,,446.766,False,0,0,9.9,9.7,1.5,1.3,-90.2,113.3,65.7,2.5,0,0,0,-0.1,-0.1,0,0,0,0,819.2,819.2,819.2,819.2,0,0,0,0,71,53.4,54,60.3,-80.8,0,0,0,0,0
S,-111,-3.75,,447.263,False,0,0,9.8,9.5,1.6,1.3,-92.5,112.2,65.7,-0.3,0,0,0,-0.1,-0.1,6.9,0,0,0,819.2,819.2,819.2,819.2,0,0,0,0,70,55.5,56.5,66.4,-88.1,0,0,0,0,0
S,-112,-3.5,,447.765,False,0,0,9.7,9.5,1.6,1.1,-94.4,112.1,64.5,-0.4,0,0,0,-0.1,-0.1,0,0,0,0,819.2,819.2,819.2,819.2,0,0,0,0,73.6,56.5,62,59.4,-90.9,0,0,0,0,0
S,-111,-4.25,,448.261,False,0,0,9.5,9.2,1.6,1.3,-93.1,111,64.5,-2.6,0,0,0,-0.1,-0.1,0,0,0,0,819.2,819.2,819.2,819.2,0,0,0,0,81.1,62.4,54.4,61,-90.9,0,0,0,0,0
S,-111,-4.5,,448.772,False,0,0,9.8,9.6,1.8,0.8,-89.4,110.7,64.6,0.7,0,0,0,-0.1,-0.1,0,0,0,0,819.2,819.2,819.2,819.2,0,0,0,0,71.9,61.6,55.5,58.3,-85.8,0,0,0,0,0
S,-111,-3.75,,449.259,False,0,0,9.8,9.6,1.9,0.8,-86.4,111.3,64.6,1.9,0,0,0,-0.1,-0.1,0,0,0,0,819.2,819.2,819.2,819.2,0,0,0,0,80,53.5,52.8,58,-83.9,0,0,0,0,0
S,-111,-4.75,,449.765,False,0,0,9.7,9.4,2,1.1,-87,112.9,63.8,1.3,0,0,0,-0.1,-0.1,0,0,0,0,819.2,819.2,819.2,819.2,0,0,0,0,73.8,55.7,55.5,59.1,-83.9,0,0,0,0,0
S,-111,-6,,450.264,False,0,0,9.8,9.4,2.1,1.3,-89.8,112.7,63,0.3,0,0,0,-0.1,-0.1,0,0,0,0,819.2,819.2,819.2,819.2,0,0,0,0,73.4,61.3,53.7,59.1,-85.8,0,0,0,0,0
S,-112,-3.5,,450.763,False,0,0,9.6,9.3,1.9,1.4,-90.4,115.4,62.4,0.5,0,0,0,-0.1,-0.1,0,0,0,0,819.2,819.2,819.2,819.2,0,0,0,0,81.7,60,56.6,59.1,-83.9,0,0,0,0,0
S,-112,-3.5,,450.763,False,0,0,9.6,9.3,1.9,1.4,-90.4,115.4,62.4,0.5,0,0,0,-0.1,-0.1,0,0,0,0,819.2,819.2,819.2,819.2,0,0,0,0,81.7,60,56.6,59.1,-83.9,0,0,0,0,0
S,-113,-4.25,,451.258,False,0,0,9.5,9.1,2.2,1.3,-88.8,117.3,61.7,0,0,0,0,-0.1,-0.1,0,0,0,0,819.2,819.2,819.2,819.2,0,0,0,0,71.9,52.8,56.1,58.9,-83.9,0,0,0,0,0
S,-112,-4.75,,451.771,False,0,0,9.3,8.9,2.2,1.6,-90.7,115.2,60.6,-3.7,0,0,0,-0.1,-0.1,0,0,0,0,819.2,819.2,819.2,819.2,0,0,0,0,73.7,61.3,55,67,-85.8,0,0,0,0,0
S,-113,-2.75,,452.258,False,0,0,9.2,8.9,2.4,0.9,-90.2,113.8,59.9,-3.2,0,0,0,-0.1,-0.1,0,0,0,0,819.2,-0.1,-0.1,-0.1,0,0,0,0,74.7,55.2,60.9,68.4,-85.8,0,0,0,0,0
S,-112,-4,,452.77,False,0,0,9.5,9.1,2.5,1.3,-87.2,114.4,57,-3.7,0,0,0,-0.1,-0.1,0,0,0,0,819.2,819.2,819.2,819.2,0,0,0,0,72.2,55.7,55.3,62.2,-85.8,0,0,0,0,0
S,-111,-4.5,,453.264,False,0,0,9.5,9.1,2.6,0.9,-86.1,114.3,58.3,0.1,0,0,0,-0.1,-0.1,0,0,0,0,819.2,819.2,819.2,819.2,0,0,0,0,71.1,62.3,54.8,59,-88.1,0,0,0,0,0
S,-112,-3,,453.767,False,0,0,9.4,9,2.2,1.1,-85.3,115.3,59.1,0,0,0,0,-0.1,-0.1,0,0,0,0,819.2,819.2,819.2,819.2,0,0,0,0,72.7,60.2,55.9,61,-88.1,0,0,0,0,0
S,-112,-3.5,,454.258,False,0,0,9,8.6,2.2,1.1,-84.2,116.5,60.6,-4.8,0,0,0,-0.1,-0.1,0,0,0,0,819.2,819.2,819.2,819.2,0,0,0,0,70,60.2,62.1,62.5,-85.8,0,0,0,0,0
S,-112,-3.75,,454.763,False,0,0,9.5,9.1,2.5,0.9,-83,114.8,62.8,-1.3,0,0,0,-0.1,-0.1,0,0,0,0,819.2,819.2,819.2,819.2,0,0,0,0,81,53.3,53.3,68.4,-88.1,0,0,0,0,0
S,-112,-3.75,,455.771,False,0,0,9.8,9.5,2.2,0.9,-85.1,111.7,62.6,1.6,0,0,0,-0.1,-0.1,0,0,0,0,819.2,819.2,819.2,819.2,0,0,0,0,71.1,56.5,62.1,69.2,-83.9,0,0,0,0,0
S,-112,-3.5,,456.257,False,0,0,9.3,9.1,2,0.8,-87.5,110.8,63.4,-2.8,0,0,0,-0.1,-0.1,0,0,0,0,819.2,819.2,819.2,819.2,0,0,0,0,72.5,52.6,53.1,61.2,-85.8,0,0,0,0,0
S,-112,-3.5,,456.257,False,0,0,9.3,9.1,2,0.8,-87.5,110.8,63.4,-2.8,0,0,0,-0.1,-0.1,0,0,0,0,819.2,819.2,819.2,819.2,0,0,0,0,72.5,52.6,53.1,61.2,-85.8,0,0,0,0,0
S,-112,-5.25,,456.771,False,0,0,9.9,9.7,2.1,0,-87.4,107.5,61.2,-1.4,0,0,0,-0.1,-0.1,0,0,0,0,819.2,819.2,819.2,819.2,0,0,0,0,71.3,54.6,53.4,59.3,-83.9,0,0,0,0,0
S,-112,-4.75,,457.259,False,0,0,9.6,9.3,2.3,0.4,-84.9,110.2,61.1,2.5,0,0,0,-0.1,-0.1,0,0,0,0,819.2,819.2,819.2,819.2,0,0,0,0,81.4,54.3,54.3,60,-83.9,0,0,0,0,0
S,-112,-4.25,,457.766,False,0,0,9.6,9.3,2.2,0.1,-83.8,110.5,63.1,0.1,0,0,0,-0.1,-0.1,0,0,0,0,819.2,819.2,819.2,819.2,0,0,0,0,72.7,53.3,53.6,66.6,-88.1,0,0,0,0,0
S,-112,-3.25,,458.764,False,0,0,9.5,9.4,1,0,-85.1,108.7,70.7,2.8,0,0,0,-0.1,-0.1,0,0,0,0,819.2,819.2,819.2,819.2,0,0,0,0,80.9,54.4,56.4,60.2,-88.1,0,0,0,0,0
S,-112,-3.25,,458.764,False,0,0,9.5,9.4,1,0,-85.1,108.7,70.7,2.8,0,0,0,-0.1,-0.1,0,0,0,0,819.2,819.2,819.2,819.2,0,0,0,0,80.9,54.4,56.4,60.2,-88.1,0,0,0,0,0
S,-110,-5.5,,459.257,False,0,0,9.5,9.4,1,0,-85,106.4,69.9,-3,0,0,0,-0.1,-0.1,0,0,0,0,819.2,819.2,819.2,819.2,0,0,0,0,72,54.9,61.5,62.7,-90.9,0,0,0,0,0
S,-110,-5.5,,459.257,False,0,0,9.5,9.4,1,0,-85,106.4,69.9,-3,0,0,0,-0.1,-0.1,0,0,0,0,819.2,819.2,819.2,819.2,0,0,0,0,72,54.9,61.5,62.7,-90.9,0,0,0,0,0
S,-111,-5,,459.766,False,0,0,9.7,9.6,1.1,0,-84.9,106.2,69.3,0.8,0,0,0,-0.1,-0.1,0,0,0,0,819.2,819.2,819.2,819.2,0,0,0,0,74.3,56.4,54.5,59.2,-90.9,0,0,0,0,0
S,-112,-4.75,,460.262,False,0,0,9,9,1.1,0,-83.9,106.1,69.8,-4.4,0,0,0,-0.1,-0.1,0,0,0,0,819.2,819.2,819.2,819.2,0,0,0,0,73.8,53.1,54.1,68.1,-85.8,0,0,0,0,0
S,-112,-5,,460.764,False,0,0,10,9.9,0.9,-1.1,-88.1,100.8,68.8,0.2,0,0,0,-0.1,-0.1,0,0,0,0,819.2,819.2,819.2,819.2,0,0,0,0,70.2,59.3,53.6,67.2,-83.9,0,0,0,0,0
S,-112,-5,,460.764,False,0,0,10,9.9,0.9,-1.1,-88.1,100.8,68.8,0.2,0,0,0,-0.1,-0.1,0,0,0,0,819.2,819.2,819.2,819.2,0,0,0,0,70.2,59.3,53.6,67.2,-83.9,0,0,0,0,0
S,-111,-5,,461.257,False,0,0,10,10,0.3,-0.8,-92.5,97.6,76.6,4.3,0,0,0,-0.1,-0.1,0,0,0,0,819.2,819.2,819.2,819.2,0,0,0,0,74.1,62.9,54.6,60,-83.9,0,0,0,0,0
S,-109,-8.5,,462.77,False,0,0,9.4,9.3,0.8,-0.3,-97.5,99.9,73.3,-1.9,0,0,0,-0.1,-0.1,0,0,0,0,819.2,819.2,819.2,-0.1,0,0,0,0,72.3,60.8,53,60.1,-90.9,0,0,0,0,0
S,-108,-8.5,,463.764,False,0,0,9.7,9.6,0,1.2,-92.2,104.4,76.6,-1.4,0,0,0,-0.1,-0.1,0,0,0,0,819.2,819.2,819.2,819.2,0,0,0,0,70,62.4,56.7,57.6,-88.1,0,0,0,0,0
S,-111,-4,,464.258,False,0,0,9.6,9.6,0.2,-0.5,-102,101.4,72.8,-7.3,-0.1,0,0,-0.1,-0.1,0,0,0,0,819.2,819.2,819.2,819.2,0,0,0,0,70.8,61.3,56.2,61.8,-83.9,0,0,0,0,0
S,-111,-3.5,,464.767,False,0,0,10.1,10.1,0,-0.5,-116.2,99.1,80.5,6.5,0.1,0,0,-0.1,-0.1,0,0,0,0,819.2,819.2,819.2,819.2,0,0,0,0,72.4,56.4,52.4,59,-88.1,0,0,0,0,0
S,-112,-7.5,,465.766,False,0,0,10,10,0,0.6,-118.4,103.7,77.3,3.7,0,0,0,-0.1,-0.1,0,0,0,0,819.2,819.2,819.2,819.2,0,0,0,0,73.3,55,60.7,60.2,-85.8,0,0,0,0,0
S,-113,-5.25,,466.767,False,0,0,9.9,9.9,-0.3,0.8,-119.3,104.9,78.5,1.9,0,0,0,-0.1,-0.1,0,0,0,0,819.2,819.2,819.2,819.2,0,0,0,0,80.4,53.3,56.6,57.5,-90.9,0,0,0,0,0
S,-112,-4.75,,467.265,False,0,0,10,9.9,-0.3,1.3,-119.7,105.1,78.9,1.1,0,0,0,-0.1,-0.1,0,0,0,4,819.2,819.2,819.2,819.2,0,0,0,0,75.5,56.1,53.4,61,-94.8,0,0,0,0,0
S,-112,-5.25,,467.766,False,0,0,9.9,9.8,-0.3,1.1,-122.4,107,77.2,1.4,0,0,0,-0.1,-0.1,0,0,0,0,819.2,819.2,-0.1,-0.1,0,0,0,0,70.8,53.8,67,69.5,-90.9,0,0,0,0,0
S,-112,-5.25,,467.766,False,0,0,9.9,9.8,-0.3,1.1,-122.4,107,77.2,1.4,0,0,0,-0.1,-0.1,0,0,0,0,819.2,819.2,-0.1,-0.1,0,0,0,0,70.8,53.8,67,69.5,-90.9,0,0,0,0,0
S,-110,-4.75,,468.263,False,0,0,9.8,9.7,-0.5,1,-123,108.1,76.4,-2.5,0,0,0,-0.1,-0.1,8.2,0,0,0,819.2,819.2,819.2,819.2,0,0,0,0,71.6,53.9,52.5,74.8,-85.8,0,0,0,0,0
S,-110,-4.5,,468.764,False,0,0,9.7,9.6,-0.3,1.2,-122.4,107.4,77.3,-1.9,0,0,0,-0.1,-0.1,0,0,0,0,819.2,819.2,819.2,819.2,0,0,0,0,71.8,53.2,56,60.8,-90.9,0,0,0,0,0
S,-111,-4.25,,469.259,False,0,0,9.5,9.5,-0.2,0.5,-121.1,105.5,77.1,-0.8,0,0,0,-0.1,-0.1,0,0,0,0,819.2,819.2,819.2,819.2,0,0,0,0,71.1,53.8,53.7,59,-90.9,0,0,0,0,0
S,-111,-2.5,,469.768,False,0,0,9.7,9.7,0,-0.1,-116.9,101.2,75.4,0.6,0,0,0,-0.1,-0.1,0,0,0,0,819.2,819.2,819.2,819.2,0,0,0,0,71.9,56,53.8,67.1,-90.9,0,0,0,0,0
S,-111,-2.5,,469.768,False,0,0,9.7,9.7,0,-0.1,-116.9,101.2,75.4,0.6,0,0,0,-0.1,-0.1,0,0,0,0,819.2,819.2,819.2,819.2,0,0,0,0,71.9,56,53.8,67.1,-90.9,0,0,0,0,0
S,-111,-2.5,,470.264,False,0,0,10.5,10.5,0.6,-0.1,-113.4,104.4,72.8,6.3,0.1,0,0,-0.1,-0.1,0,0,0,0,819.2,819.2,819.2,819.2,0,0,0,0,72.3,54,53.4,58.7,-90.9,0,0,0,0,0
S,-111,-3.75,,470.766,False,0,0,9.7,9.7,0.6,0.5,-114.3,104.3,71.5,-1,0,0,0,-0.1,-0.1,0,0,0,0,819.2,819.2,819.2,819.2,0,0,0,0,74.8,62.8,56.4,58.9,-85.8,0,0,0,0,0
S,-112,-7.75,,471.261,False,0,0,9.8,9.8,-0.3,0,-121.5,102.8,77.4,1.4,0,0,0,-0.1,-0.1,0,0,0,0,819.2,819.2,819.2,819.2,0,0,0,0,72.2,54.8,54,67.6,-83.9,0,0,0,0,0
